"Codi","Nom","Codi comarca","Nom comarca","UTM X","UTM Y","Longitud","Latitud","Georeferència"
"171827","Santa Llogaia d'Àlguema","02","Alt Empordà","496,132.2368","4,675,759.126","2.953125695","42.23400499","POINT (2.953125695 42.23400499)"
"172082","Vall de Bianya, la","19","Garrotxa","455,057.6174","4,673,354.607","2.45553093","42.21106657","POINT (2.45553093 42.21106657)"
"171292","Pedret i Marzà","02","Alt Empordà","505,660.7786","4,684,221.24","3.068686953","42.31020582","POINT (3.068686953 42.31020582)"
"081640","Pla del Penedès, el","03","Alt Penedès","392,219.8573","4,586,003.949","1.710276206","41.41836621","POINT (1.710276206 41.41836621)"
"251312","Massalcoreig","33","Segrià","279,455.7361","4,593,096.815","0.359348357","41.45916407","POINT (0.359348357 41.45916407)"
"081458","Olèrdola","03","Alt Penedès","392,967.7763","4,575,182.926","1.721133883","41.32101847","POINT (1.721133883 41.32101847)"
"430043","Alcanar","22","Montsià","286,762.4333","4,491,059.459","0.481966932","40.5428638","POINT (0.481966932 40.5428638)"
"082205","Sant Julià de Vilatorta","24","Osona","443,988.3578","4,641,369.453","2.324497728","41.92229554","POINT (2.324497728 41.92229554)"
"251351","Miralcamp","27","Pla d'Urgell","323,355.9178","4,608,046.505","0.88020209","41.60459409","POINT (0.88020209 41.60459409)"
"080581","Castellet i la Gornal","03","Alt Penedès","381,929.5554","4,567,845.08","1.590703884","41.25340002","POINT (1.590703884 41.25340002)"
"252424","Verdú","38","Urgell","345,258.6545","4,608,207.091","1.142859787","41.61058522","POINT (1.142859787 41.61058522)"
"250306","Pont de Bar, el","04","Alt Urgell","385,156.651","4,692,046.167","1.605152752","42.37221301","POINT (1.605152752 42.37221301)"
"250851","Estaràs","32","Segarra","365,056.049","4,616,846.202","1.378411547","41.69196075","POINT (1.378411547 41.69196075)"
"081017","Hospitalet de Llobregat, l'","13","Barcelonès","424,696.8549","4,579,052.691","2.099712098","41.35945967","POINT (2.099712098 41.35945967)"
"082114","Sant Feliu de Llobregat","11","Baix Llobregat","420,250.8675","4,581,597.729","2.046230144","41.38195325","POINT (2.046230144 41.38195325)"
"250485","Bell-lloc d'Urgell","27","Pla d'Urgell","315,037.0216","4,611,080.95","0.779505499","41.63002203","POINT (0.779505499 41.63002203)"
"251811","Puigverd d'Agramunt","38","Urgell","343,895.6925","4,626,811.842","1.12164226","41.77780562","POINT (1.12164226 41.77780562)"
"252265","Torrebesses","33","Segrià","298,955.7344","4,588,871.661","0.594026858","41.42626107","POINT (0.594026858 41.42626107)"
"080804","Fígols","14","Berguedà","403,936.1968","4,670,528.291","1.836761574","42.18100615","POINT (1.836761574 42.18100615)"
"171621","Sant Ferriol","19","Garrotxa","476,414.6358","4,671,415.442","2.71434161","42.19453826","POINT (2.71434161 42.19453826)"
"081748","Puigdàlber","03","Alt Penedès","391,429.556","4,584,451.505","1.701100137","41.40427965","POINT (1.701100137 41.40427965)"
"430347","Bràfim","01","Alt Camp","361,052.6869","4,569,917.16","1.341136631","41.26873802","POINT (1.341136631 41.26873802)"
"431310","Roda de Berà","36","Tarragonès","370,588.5323","4,560,553.065","1.456926185","41.18600197","POINT (1.456926185 41.18600197)"
"431401","Santa Oliva","12","Baix Penedès","378,472.6985","4,567,911.025","1.549441975","41.25348148","POINT (1.549441975 41.25348148)"
"080095","Argentona","21","Maresme","450,008.1375","4,600,615.296","2.400515899","41.55564404","POINT (2.400515899 41.55564404)"
"083008","Viladecavalls","40","Vallès Occidental","412,803.0027","4,600,934.816","1.954375361","41.55533046","POINT (1.954375361 41.55533046)"
"170600","Darnius","02","Alt Empordà","486,178.797","4,690,673.398","2.832141614","42.36821251","POINT (2.832141614 42.36821251)"
"172229","Vilaür","02","Alt Empordà","496,189.4617","4,665,714.274","2.953885017","42.14353764","POINT (2.953885017 42.14353764)"
"250962","Fuliola, la","38","Urgell","335,205.2366","4,619,981.062","1.019023032","41.71456032","POINT (1.019023032 41.71456032)"
"171485","Riudarenes","34","Selva","476,456.2908","4,630,045.378","2.716505285","41.82193823","POINT (2.716505285 41.82193823)"
"171931","Sils","34","Selva","478,763.314","4,628,555.358","2.744337729","41.80858301","POINT (2.744337729 41.80858301)"
"431444","Secuita, la","36","Tarragonès","355,733.018","4,562,746.29","1.279347632","41.20324051","POINT (1.279347632 41.20324051)"
"171215","Palau-sator","10","Baix Empordà","509,209.1659","4,648,597.292","3.111179563","41.98932789","POINT (3.111179563 41.98932789)"
"081509","Orís","24","Osona","437,056.4618","4,656,520.718","2.239282559","42.05822395","POINT (2.239282559 42.05822395)"
"439060","Ampolla, l'","09","Baix Ebre","307,226.2297","4,520,646.492","0.714340607","40.8142068","POINT (0.714340607 40.8142068)"
"431613","Valls","01","Alt Camp","353,254.583","4,571,799.26","1.247623975","41.28430482","POINT (1.247623975 41.28430482)"
"081537","Òrrius","21","Maresme","446,207.0516","4,600,580.562","2.35494046","41.55508453","POINT (2.35494046 41.55508453)"
"081206","Matadepera","40","Vallès Occidental","418,890.0462","4,605,450.776","2.026747357","41.59664189","POINT (2.026747357 41.59664189)"
"251500","Oliola","23","Noguera","348,500.1812","4,637,616.361","1.174256928","41.87596418","POINT (1.174256928 41.87596418)"
"082140","Vilassar de Dalt","21","Maresme","446,554.0198","4,596,348.552","2.359477069","41.51699079","POINT (2.359477069 41.51699079)"
"171518","Riumors","02","Alt Empordà","503,550.7047","4,674,962.242","3.043026927","42.22682952","POINT (3.043026927 42.22682952)"
"431331","Roquetes","09","Baix Ebre","289,414.2097","4,521,596.629","0.503011157","40.81838249","POINT (0.503011157 40.81838249)"
"171077","Molló","31","Ripollès","450,926.7257","4,688,454.662","2.404208714","42.34680531","POINT (2.404208714 42.34680531)"
"252496","Vilanova de l'Aguda","23","Noguera","355,068.9146","4,641,356.346","1.252463404","41.91086491","POINT (1.252463404 41.91086491)"
"170865","Jonquera, la","02","Alt Empordà","489,564.0188","4,696,074.031","2.87315709","42.41690358","POINT (2.87315709 42.41690358)"
"081957","Sant Agustí de Lluçanès","24","Osona","427,779.4714","4,659,649.793","2.126789136","42.085605","POINT (2.126789136 42.085605)"
"252115","Sudanell","33","Segrià","297,118.3962","4,603,527.398","0.56712494","41.55769135","POINT (0.56712494 41.55769135)"
"080370","Calldetenes","24","Osona","440,654.4121","4,641,599.549","2.284270015","41.92412424","POINT (2.284270015 41.92412424)"
"252311","Torrelameu","23","Noguera","308,881.3754","4,619,468.843","0.702979521","41.70406182","POINT (0.702979521 41.70406182)"
"171595","Sant Feliu de Buixalleu","34","Selva","467,325.4632","4,620,477.827","2.60708759","41.73544122","POINT (2.60708759 41.73544122)"
"172044","Ullà","10","Baix Empordà","508,915.8478","4,655,423.652","3.107742163","42.0508137","POINT (3.107742163 42.0508137)"
"080832","Folgueroles","24","Osona","443,502.3707","4,643,186.648","2.318462912","41.93862682","POINT (2.318462912 41.93862682)"
"250450","Bausen","39","Aran","313,356.9414","4,744,996.794","0.716292102","42.83477555","POINT (0.716292102 42.83477555)"
"082938","Vallcebre","14","Berguedà","402,469.5336","4,673,028.006","1.818586195","42.20333326","POINT (1.818586195 42.20333326)"
"171523","Roses","02","Alt Empordà","514,427.1688","4,679,037.652","3.174927346","42.26340849","POINT (3.174927346 42.26340849)"
"430542","Espluga de Francolí, l'","16","Conca de Barberà","341,539.8605","4,584,493.143","1.104490009","41.39637103","POINT (1.104490009 41.39637103)"
"080996","Guardiola de Berguedà","14","Berguedà","407,485.0359","4,676,279.443","1.878810946","42.23322071","POINT (1.878810946 42.23322071)"
"170255","Bordils","20","Gironès","492,675.5338","4,654,670.293","2.911498031","42.04404495","POINT (2.911498031 42.04404495)"
"170031","Albanyà","02","Alt Empordà","476,930.9321","4,683,650.721","2.720108023","42.30474663","POINT (2.720108023 42.30474663)"
"081234","Molins de Rei","11","Baix Llobregat","417,759.8903","4,585,138.754","2.015962183","41.41359396","POINT (2.015962183 41.41359396)"
"430017","Aiguamúrcia","01","Alt Camp","363,055.7551","4,578,521.158","1.363104482","41.34655112","POINT (1.363104482 41.34655112)"
"251459","Nalec","38","Urgell","342,830.9067","4,602,621.349","1.115201518","41.55982565","POINT (1.115201518 41.55982565)"
"250447","Bassella","04","Alt Urgell","358,748.305","4,651,839.304","1.294293646","42.00590676","POINT (1.294293646 42.00590676)"
"081363","Montornès del Vallès","41","Vallès Oriental","438,890.3517","4,599,548.218","2.267313544","41.54526095","POINT (2.267313544 41.54526095)"
"251575","Ossó de Sió","38","Urgell","346,981.0767","4,624,171.351","1.159428883","41.75463582","POINT (1.159428883 41.75463582)"
"171426","Quart","20","Gironès","486,731.4368","4,643,101.32","2.839936624","41.93976947","POINT (2.839936624 41.93976947)"
"431153","Pradell de la Teixeta","29","Priorat","321,755.5376","4,558,271.441","0.875646887","41.15619339","POINT (0.875646887 41.15619339)"
"082763","Tagamanent","41","Vallès Oriental","439,106.1953","4,620,995.647","2.267717476","41.7384436","POINT (2.267717476 41.7384436)"
"251425","Montoliu de Lleida","33","Segrià","298,897.6913","4,603,750.762","0.588368512","41.56015082","POINT (0.588368512 41.56015082)"
"171655","Sant Jaume de Llierca","19","Garrotxa","467,600.9123","4,673,356.504","2.607486515","42.21170425","POINT (2.607486515 42.21170425)"
"251543","Omells de na Gaia, els","38","Urgell","339,340.8521","4,596,128.366","1.07510478","41.50068029","POINT (1.07510478 41.50068029)"
"171729","Sant Martí de Llémena","20","Gironès","470,832.4939","4,653,850.457","2.647611077","42.0361542","POINT (2.647611077 42.0361542)"
"430799","Masllorenç","12","Baix Penedès","367,271.0107","4,569,899.517","1.415351919","41.26962478","POINT (1.415351919 41.26962478)"
"259097","Vansa i Fórnols, la","04","Alt Urgell","374,614.4418","4,676,826.681","1.480451914","42.23356279","POINT (1.480451914 42.23356279)"
"170097","Arbúcies","34","Selva","459,614.461","4,629,461.982","2.513754625","41.81600431","POINT (2.513754625 41.81600431)"
"080863","Franqueses del Vallès, les","41","Vallès Oriental","441,462.1127","4,609,635.612","2.297161105","41.63630673","POINT (2.297161105 41.63630673)"
"082956","Vallirana","11","Baix Llobregat","410,697.8582","4,582,386.803","1.931881445","41.38805611","POINT (1.931881445 41.38805611)"
"170307","Cabanes","02","Alt Empordà","498,191.7643","4,683,886.296","2.978060207","42.30720773","POINT (2.978060207 42.30720773)"
"430982","Nulles","01","Alt Camp","357,161.1268","4,567,855.037","1.295178559","41.24949229","POINT (1.295178559 41.24949229)"
"251155","Isona i Conca Dellà","25","Pallars Jussà","338,292.2324","4,664,614.887","1.043875564","42.11696856","POINT (1.043875564 42.11696856)"
"171788","Sant Pere Pescador","02","Alt Empordà","506,876.9526","4,670,666.654","3.083283056","42.18811983","POINT (3.083283056 42.18811983)"
"251116","Guixers","35","Solsonès","389,778.0118","4,665,341.043","1.666343154","42.13243407","POINT (1.666343154 42.13243407)"
"170209","Bescanó","20","Gironès","478,734.5985","4,645,966.856","2.743365182","41.96540335","POINT (2.743365182 41.96540335)"
"081167","Masies de Roda, les","24","Osona","442,657.4121","4,648,849.663","2.30771889","41.98956736","POINT (2.30771889 41.98956736)"
"171812","Santa Cristina d'Aro","10","Baix Empordà","499,742.3494","4,628,911.199","2.99689805","41.81207252","POINT (2.99689805 41.81207252)"
"080787","Espunyola, l'","14","Berguedà","398,032.4008","4,656,457.014","1.767745419","42.05355577","POINT (1.767745419 42.05355577)"
"430445","Sénia, la","22","Montsià","270,411.7228","4,501,597.769","0.285251665","40.63332816","POINT (0.285251665 40.63332816)"
"431785","Vinyols i els Arcs","08","Baix Camp","335,367.3553","4,553,223.349","1.039134837","41.11362398","POINT (1.039134837 41.11362398)"
"082896","Torrelles de Llobregat","11","Baix Llobregat","414,775.8401","4,579,116.767","1.981109195","41.35904782","POINT (1.981109195 41.35904782)"
"250735","Cervià de les Garrigues","18","Garrigues","321,112.0961","4,588,108.203","0.859217612","41.42462762","POINT (0.859217612 41.42462762)"
"170792","Girona","20","Gironès","485,491.9609","4,647,920.828","2.824865628","41.98315544","POINT (2.824865628 41.98315544)"
"431166","Prades","08","Baix Camp","331,593.9731","4,575,100.24","0.988191149","41.3097941","POINT (0.988191149 41.3097941)"
"431191","Puigpelat","01","Alt Camp","357,430.6901","4,571,096.19","1.297636558","41.27872271","POINT (1.297636558 41.27872271)"
"250616","Cabó","04","Alt Urgell","355,357.4965","4,677,785.371","1.246936817","42.23886454","POINT (1.246936817 42.23886454)"
"081120","Manlleu","24","Osona","440,667.4181","4,650,017.681","2.283578064","41.9999391","POINT (2.283578064 41.9999391)"
"172327","Vilopriu","10","Baix Empordà","499,362.5949","4,661,346.253","2.992290918","42.10420619","POINT (2.992290918 42.10420619)"
"082554","Santa Maria de Merlès","14","Berguedà","415,392.3816","4,650,387.873","1.978376645","42.00096264","POINT (1.978376645 42.00096264)"
"252043","Seròs","33","Segrià","283,788.7721","4,593,488.472","0.411037646","41.4638672","POINT (0.411037646 41.4638672)"
"251193","Juneda","18","Garrigues","318,615.864","4,601,955.532","0.825199319","41.54870764","POINT (0.825199319 41.54870764)"
"430287","Bisbal del Penedès, la","12","Baix Penedès","373,355.7143","4,570,996.068","1.487744296","41.28047573","POINT (1.487744296 41.28047573)"
"251728","Ponts","23","Noguera","349,597.735","4,641,966.384","1.186369339","41.91533392","POINT (1.186369339 41.91533392)"
"431299","Riudoms","08","Baix Camp","336,412.542","4,555,872.325","1.050870857","41.1376834","POINT (1.050870857 41.1376834)"
"081803","Ripollet","40","Vallès Occidental","429,343.9771","4,594,221.68","2.15349201","41.49650163","POINT (2.15349201 41.49650163)"
"080180","Balsareny","07","Bages","406,781.2532","4,635,198.914","1.876819518","41.86321312","POINT (1.876819518 41.86321312)"
"250365","Aspa","33","Segrià","305,705.8022","4,596,396.621","0.672320658","41.49564683","POINT (0.672320658 41.49564683)"
"250122","Alcoletge","33","Segrià","307,985.9327","4,613,153.63","0.694256215","41.6470102","POINT (0.694256215 41.6470102)"
"259139","Riu de Cerdanya","15","Cerdanya","403,321.6544","4,688,811.024","1.82627168","42.34555485","POINT (1.82627168 42.34555485)"
"171959","Tallada d'Empordà, la","10","Baix Empordà","504,531.5822","4,658,620.209","3.054785975","42.0796412","POINT (3.054785975 42.0796412)"
"171365","Pontós","02","Alt Empordà","493,130.3732","4,670,512.547","2.916807482","42.18673195","POINT (2.916807482 42.18673195)"
"080924","Gironella","14","Berguedà","407,528.3979","4,654,136.938","1.882846227","42.03383842","POINT (1.882846227 42.03383842)"
"080168","Bagà","14","Berguedà","406,176.5492","4,678,477.049","1.86260099","42.25285297","POINT (1.86260099 42.25285297)"
"430803","Masó, la","01","Alt Camp","351,055.6441","4,566,346.231","1.222709035","41.2348059","POINT (1.222709035 41.2348059)"
"430252","Benifallet","09","Baix Ebre","291,168.1246","4,538,871.987","0.517981377","40.97430796","POINT (0.517981377 40.97430796)"
"251749","Portella, la","33","Segrià","303,680.7677","4,623,562.437","0.639175932","41.73963592","POINT (0.639175932 41.73963592)"
"081483","Olivella","17","Garraf","400,576.7781","4,573,885.866","1.812242091","41.31031156","POINT (1.812242091 41.31031156)"
"431423","Sarral","16","Conca de Barberà","353,709.1895","4,589,538.525","1.248772104","41.4441021","POINT (1.248772104 41.4441021)"
"430691","Gratallops","29","Priorat","313,622.5581","4,562,634.509","0.777456951","41.19363821","POINT (0.777456951 41.19363821)"
"430672","Ginestar","30","Ribera d'Ebre","301,105.4134","4,546,096.578","0.633663591","41.04181481","POINT (0.633663591 41.04181481)"
"250352","Sentiu de Sió, la","23","Noguera","323,697.4158","4,630,338.273","0.877706518","41.80531687","POINT (0.877706518 41.80531687)"
"431037","Perafort","36","Tarragonès","353,705.5799","4,561,396.203","1.255500189","41.19072089","POINT (1.255500189 41.19072089)"
"431325","Rodonyà","01","Alt Camp","365,925.7586","4,571,080.505","1.399037098","41.28003658","POINT (1.399037098 41.28003658)"
"250463","Belianes","38","Urgell","334,679.3961","4,603,000.023","1.017397869","41.56159093","POINT (1.017397869 41.56159093)"
"082172","Sant Joan Despí","11","Baix Llobregat","420,963.2776","4,580,020.869","2.054954782","41.36782167","POINT (2.054954782 41.36782167)"
"430081","Alfara de Carles","09","Baix Ebre","280,930.2447","4,527,996.703","0.400259187","40.87375777","POINT (0.400259187 40.87375777)"
"170694","Fontanals de Cerdanya","15","Cerdanya","409,407.6965","4,693,109.984","1.899470415","42.38499703","POINT (1.899470415 42.38499703)"
"250083","Albesa","23","Noguera","305,403.2773","4,624,746.558","0.659485934","41.75071608","POINT (0.659485934 41.75071608)"
"259118","Plans de Sió, els","32","Segarra","350,123.1934","4,624,852.945","1.197033473","41.76137105","POINT (1.197033473 41.76137105)"
"081043","Llacuna, la","06","Anoia","377,424.8817","4,592,249.071","1.532021048","41.47248046","POINT (1.532021048 41.47248046)"
"080023","Aguilar de Segarra","07","Bages","386,156.1188","4,621,696.05","1.630963223","41.73892913","POINT (1.630963223 41.73892913)"
"431205","Querol","01","Alt Camp","366,110.8242","4,586,989.148","1.397736804","41.42331134","POINT (1.397736804 41.42331134)"
"252555","Vinaixa","18","Garrigues","330,805.7794","4,588,296.418","0.975099399","41.42842162","POINT (0.975099399 41.42842162)"
"171772","Sant Pau de Segúries","31","Ripollès","447,681.649","4,679,045.672","2.365664211","42.26185991","POINT (2.365664211 42.26185991)"
"082021","Sant Celoni","41","Vallès Oriental","457,768.1826","4,615,478.497","2.49251912","41.68996299","POINT (2.49251912 41.68996299)"
"080790","Estany, l'","42","Moianès","426,344.2862","4,635,568.767","2.112454961","41.86860715","POINT (2.112454961 41.86860715)"
"252326","Torres de Segre","33","Segrià","292,499.1392","4,601,156.38","0.512600714","41.53516991","POINT (0.512600714 41.53516991)"
"251291","Llobera","35","Solsonès","372,571.254","4,642,304.185","1.463218405","41.92241632","POINT (1.463218405 41.92241632)"
"250156","Algerri","23","Noguera","303,856.0692","4,632,021.69","0.638489583","41.81580709","POINT (0.638489583 41.81580709)"
"080333","Caldes de Montbui","41","Vallès Oriental","430,222.9048","4,609,545.477","2.162240112","41.63459072","POINT (2.162240112 41.63459072)"
"172305","Vila-sacra","02","Alt Empordà","501,520.7343","4,679,250.264","3.018439284","42.26545523","POINT (3.018439284 42.26545523)"
"431016","Passanant i Belltall","16","Conca de Barberà","349,580.8614","4,599,371.293","1.196922058","41.53186384","POINT (1.196922058 41.53186384)"
"080348","Calders","42","Moianès","416,188.2046","4,626,871.83","1.991322594","41.78927569","POINT (1.991322594 41.78927569)"
"171096","Montagut i Oix","19","Garrotxa","466,676.892","4,675,554.903","2.59616617","42.23146439","POINT (2.59616617 42.23146439)"
"250788","Corbins","33","Segrià","308,003.6342","4,618,002.199","0.692910362","41.69065099","POINT (0.692910362 41.69065099)"
"431554","Tortosa","09","Baix Ebre","290,904.2497","4,520,723.481","0.520955976","40.810905","POINT (0.520955976 40.810905)"
"430022","Albinyana","12","Baix Penedès","373,157.6843","4,567,130.064","1.486184747","41.24563253","POINT (1.486184747 41.24563253)"
"081960","Sant Andreu de la Barca","11","Baix Llobregat","414,083.9157","4,589,223.788","1.971403604","41.44999966","POINT (1.971403604 41.44999966)"
"081347","Figaró-Montmany","41","Vallès Oriental","439,560.1821","4,619,132.641","2.273365617","41.72169934","POINT (2.273365617 41.72169934)"
"082482","Santa Eulàlia de Ronçana","41","Vallès Oriental","435,818.1181","4,611,464.658","2.229205451","41.65234558","POINT (2.229205451 41.65234558)"
"170828","Guils de Cerdanya","15","Cerdanya","407,832.7476","4,700,170.007","1.879209626","42.44838226","POINT (1.879209626 42.44838226)"
"250766","Cogul, el","18","Garrigues","307,055.7792","4,593,146.606","0.689520695","41.46672232","POINT (0.689520695 41.46672232)"
"172023","Tossa de Mar","34","Selva","494,246.8372","4,618,446.697","2.930836887","41.71779758","POINT (2.930836887 41.71779758)"
"170675","Flaçà","20","Gironès","496,535.5426","4,655,006.264","2.958136746","42.0470974","POINT (2.958136746 42.0470974)"
"172348","Biure","02","Alt Empordà","491,356.7799","4,687,320.416","2.895078275","42.33809006","POINT (2.895078275 42.33809006)"
"171371","Porqueres","28","Pla de l'Estany","481,649.4894","4,661,381.249","2.778059867","42.10430702","POINT (2.778059867 42.10430702)"
"431476","Solivella","16","Conca de Barberà","347,804.9198","4,590,971.342","1.177765474","41.45590429","POINT (1.177765474 41.45590429)"
"259101","Josa i Tuixén","04","Alt Urgell","381,711.5272","4,676,444.169","1.566512595","42.23122593","POINT (1.566512595 42.23122593)"
"430593","Figuerola del Camp","01","Alt Camp","354,930.7654","4,581,496.225","1.26531658","41.37191524","POINT (1.26531658 41.37191524)"
"171181","Palamós","10","Baix Empordà","510,757.3458","4,632,759.494","3.129581349","41.84666081","POINT (3.129581349 41.84666081)"
"082153","Sant Hipòlit de Voltregà","24","Osona","436,759.0255","4,651,784.483","2.236199081","42.01554645","POINT (2.236199081 42.01554645)"
"170118","Armentera, l'","02","Alt Empordà","505,989.6617","4,668,750.214","3.072517841","42.17086694","POINT (3.072517841 42.17086694)"
"089030","Sant Julià de Cerdanyola","14","Berguedà","408,635.5599","4,675,222.962","1.892917871","42.22384293","POINT (1.892917871 42.22384293)"
"082212","Sant Just Desvern","11","Baix Llobregat","422,707.8538","4,581,990.252","2.075560984","41.38572828","POINT (2.075560984 41.38572828)"
"250175","Alins","26","Pallars Sobirà","361,956.7358","4,712,071.436","1.318664825","42.54870829","POINT (1.318664825 42.54870829)"
"170216","Beuda","19","Garrotxa","476,056.6711","4,676,145.452","2.70981115","42.23712686","POINT (2.70981115 42.23712686)"
"171463","Riells i Viabrea","34","Selva","463,206.2206","4,619,370.462","2.557623335","41.72528733","POINT (2.557623335 41.72528733)"
"172253","Vilamacolum","02","Alt Empordà","504,702.6813","4,671,604.228","3.056959228","42.19658005","POINT (3.056959228 42.19658005)"
"430192","Ascó","30","Ribera d'Ebre","295,942.5233","4,561,692.642","0.567111344","41.18090134","POINT (0.567111344 41.18090134)"
"431567","Ulldecona","22","Montsià","284,130.7722","4,497,266.192","0.448797887","40.59804299","POINT (0.448797887 40.59804299)"
"081081","Lliçà de Vall","41","Vallès Oriental","436,576.0635","4,604,125.64","2.239084658","41.58630762","POINT (2.239084658 41.58630762)"
"251673","Pinós","35","Solsonès","378,924.183","4,631,637.12","1.541994622","41.82737047","POINT (1.541994622 41.82737047)"
"171714","Sant Llorenç de la Muga","02","Alt Empordà","482,703.9561","4,685,402.24","2.790097926","42.32067057","POINT (2.790097926 42.32067057)"
"080462","Cardedeu","41","Vallès Oriental","446,309.9318","4,609,818.135","2.355346668","41.63829179","POINT (2.355346668 41.63829179)"
"082573","Santa Maria de Miralles","06","Anoia","376,961.9197","4,597,316.082","1.525443659","41.51803535","POINT (1.525443659 41.51803535)"
"171122","Ogassa","31","Ripollès","440,406.6417","4,679,545.728","2.277413077","42.26584144","POINT (2.277413077 42.26584144)"
"179032","Sant Julià del Llor i Bonmatí","34","Selva","472,650.4393","4,646,297.432","2.669926096","41.9681931","POINT (2.669926096 41.9681931)"
"431536","Torredembarra","36","Tarragonès","365,402.3866","4,556,211.74","1.396064236","41.14606579","POINT (1.396064236 41.14606579)"
"082074","Sant Esteve de Palautordera","41","Vallès Oriental","453,006.1868","4,617,015.536","2.435177772","41.70353973","POINT (2.435177772 41.70353973)"
"080137","Avinyonet del Penedès","03","Alt Penedès","397,904.8169","4,579,548.895","1.779376543","41.36097714","POINT (1.779376543 41.36097714)"
"080879","Gallifa","40","Vallès Occidental","426,413.1385","4,616,081.736","2.115699161","41.69311463","POINT (2.115699161 41.69311463)"
"252347","Tremp","25","Pallars Jussà","326,195.4076","4,670,452.067","0.895896972","42.16691811","POINT (0.895896972 42.16691811)"
"251667","Pinell de Solsonès","35","Solsonès","368,941.2723","4,645,451.217","1.418757039","41.95015594","POINT (1.418757039 41.95015594)"
"251403","Montferrer i Castellbò","04","Alt Urgell","370,508.5054","4,688,864.904","1.428016981","42.34127089","POINT (1.428016981 42.34127089)"
"430115","Almoster","08","Baix Camp","341,802.7993","4,562,463.522","1.113359413","41.1980931","POINT (1.113359413 41.1980931)"
"171002","Masarac i Vilarnadal","02","Alt Empordà","497,731.8002","4,688,745.307","2.972460262","42.3509675","POINT (2.972460262 42.3509675)"
"080214","Bellprat","06","Anoia","369,367.9081","4,597,362.14","1.434454531","41.51724732","POINT (1.434454531 41.51724732)"
"439076","Canonja, la","36","Tarragonès","347,129.5448","4,553,999.241","1.178965575","41.1229086","POINT (1.178965575 41.1229086)"
"250560","Bovera","18","Garrigues","302,405.6549","4,577,696.617","0.638921343","41.32654176","POINT (0.638921343 41.32654176)"
"082129","Sant Feliu Sasserra","07","Bages","418,974.3397","4,644,110.836","2.022486759","41.94481219","POINT (2.022486759 41.94481219)"
"082135","Sant Fruitós de Bages","07","Bages","406,323.1578","4,622,707.898","1.87327387","41.75067462","POINT (1.87327387 41.75067462)"
"430228","Batea","37","Terra Alta","274,144.422","4,552,777.793","0.310763867","41.09490435","POINT (0.310763867 41.09490435)"
"250096","Albi, l'","18","Garrigues","327,528.3966","4,587,803.459","0.936040777","41.42328726","POINT (0.936040777 41.42328726)"
"251431","Montornès de Segarra","32","Segarra","352,555.9552","4,606,996.282","1.230695659","41.60106555","POINT (1.230695659 41.60106555)"
"080608","Castellfollit de Riubregós","06","Anoia","370,149.1749","4,626,094.128","1.437574989","41.77607379","POINT (1.437574989 41.77607379)"
"080500","Castellar del Riu","14","Berguedà","393,278.6477","4,665,133.45","1.708727309","42.13104932","POINT (1.708727309 42.13104932)"
"430846","Miravet","30","Ribera d'Ebre","298,055.4058","4,545,771.601","0.597512982","41.03813937","POINT (0.597512982 41.03813937)"
"170433","Queralbs","31","Ripollès","431,035.6976","4,688,809.814","2.162693687","42.34849447","POINT (2.162693687 42.34849447)"
"252213","Tírvia","26","Pallars Sobirà","355,656.7296","4,708,471.416","1.242875431","42.51515105","POINT (1.242875431 42.51515105)"
"080459","Capolat","14","Berguedà","396,865.315","4,659,103.828","1.753178363","42.07723654","POINT (1.753178363 42.07723654)"
"080692","Collbató","11","Baix Llobregat","402,408.9973","4,602,396.897","1.829521495","41.56729637","POINT (1.829521495 41.56729637)"
"170427","Capmany","02","Alt Empordà","493,490.899","4,691,152.68","2.920941486","42.37262459","POINT (2.920941486 42.37262459)"
"083054","Vilafranca del Penedès","03","Alt Penedès","391,009.0313","4,578,041.386","1.697222865","41.34649761","POINT (1.697222865 41.34649761)"
"171241","Pals","10","Baix Empordà","512,020.503","4,646,575.134","3.145078573","41.9710771","POINT (3.145078573 41.9710771)"
"171576","Sant Andreu Salou","20","Gironès","485,521.3791","4,635,730.318","2.825520191","41.87335925","POINT (2.825520191 41.87335925)"
"250539","Benavent de Segrià","33","Segrià","303,155.8413","4,618,556.062","0.634522237","41.69445163","POINT (0.634522237 41.69445163)"
"082613","Santa Susanna","21","Maresme","475,602.1635","4,609,349.352","2.707068724","41.63550377","POINT (2.707068724 41.63550377)"
"431264","Riera de Gaià, la","36","Tarragonès","362,531.9875","4,558,350.244","1.361392723","41.16484026","POINT (1.361392723 41.16484026)"
"251902","Salàs de Pallars","25","Pallars Jussà","329,256.4381","4,675,446.627","0.931464895","42.21254512","POINT (0.931464895 42.21254512)"
"080351","Calella","21","Maresme","471,440.3386","4,606,896.38","2.65721784","41.61327142","POINT (2.65721784 41.61327142)"
"170789","Ger","15","Cerdanya","405,005.7108","4,696,014.989","1.845525258","42.41062854","POINT (1.845525258 42.41062854)"
"251095","Guimerà","38","Urgell","348,547.4515","4,602,985.274","1.183629776","41.5642051","POINT (1.183629776 41.5642051)"
"251240","Lladurs","35","Solsonès","376,490.3626","4,655,813.176","1.507628611","42.04466915","POINT (1.507628611 42.04466915)"
"082264","Sant Martí de Tous","06","Anoia","376,839.2234","4,602,045.284","1.523004887","41.5606001","POINT (1.523004887 41.5606001)"
"171740","Sant Miquel de Campmajor","28","Pla de l'Estany","473,914.9017","4,663,791.167","2.684407451","42.12579254","POINT (2.684407451 42.12579254)"
"430748","Llorenç del Penedès","12","Baix Penedès","378,818.3366","4,571,176.094","1.552917107","41.28293512","POINT (1.552917107 41.28293512)"
"430901","Montmell, el","12","Baix Penedès","370,582.0695","4,574,941.654","1.453796685","41.31556393","POINT (1.453796685 41.31556393)"
"430496","Cornudella de Montsant","29","Priorat","324,505.6333","4,570,296.438","0.904950072","41.26504071","POINT (0.904950072 41.26504071)"
"430859","Molar, el","29","Priorat","307,555.5247","4,559,471.55","0.706156478","41.16375075","POINT (0.706156478 41.16375075)"
"080983","Sant Salvador de Guardiola","07","Bages","397,315.0846","4,614,897.955","1.766295575","41.67923246","POINT (1.766295575 41.67923246)"
"170852","Jafre","10","Baix Empordà","500,890.0761","4,657,766.583","3.010759556","42.07196555","POINT (3.010759556 42.07196555)"
"170773","Garriguella","02","Alt Empordà","505,328.6511","4,688,030.234","3.064692114","42.34451252","POINT (3.064692114 42.34451252)"
"251641","Penelles","23","Noguera","330,874.6837","4,624,904.864","0.965598414","41.75797244","POINT (0.965598414 41.75797244)"
"080771","Esplugues de Llobregat","11","Baix Llobregat","423,737.8689","4,581,087.702","2.087992375","41.37769777","POINT (2.087992375 41.37769777)"
"251386","Montgai","23","Noguera","330,633.4884","4,629,569.401","0.961368967","41.79990798","POINT (0.961368967 41.79990798)"
"082303","Premià de Dalt","21","Maresme","445,126.0097","4,595,284.562","2.34246115","41.50731101","POINT (2.34246115 41.50731101)"
"171864","Sarrià de Ter","20","Gironès","485,528.9677","4,651,688.79","2.825219512","42.01709275","POINT (2.825219512 42.01709275)"
"081496","Olost","43","Lluçanès","425,093.3832","4,648,595.796","2.095728143","41.98580669","POINT (2.095728143 41.98580669)"
"172039","Ultramort","10","Baix Empordà","502,856.5436","4,653,845.214","3.034511785","42.03664273","POINT (3.034511785 42.03664273)"
"259123","Gimenells i el Pla de la Font","33","Segrià","282,651.9033","4,614,461.824","0.389850706","41.65227888","POINT (0.389850706 41.65227888)"
"250349","Artesa de Segre","23","Noguera","337,862.6179","4,640,014.073","1.045473965","41.89543837","POINT (1.045473965 41.89543837)"
"251121","Ivars de Noguera","23","Noguera","299,591.3389","4,635,977.327","0.58584905","41.85033683","POINT (0.58584905 41.85033683)"
"082286","Sant Martí Sesgueioles","06","Anoia","374,209.1216","4,617,796.033","1.488163253","41.7020122","POINT (1.488163253 41.7020122)"
"080615","Castellgalí","07","Bages","403,326.3997","4,614,367.658","1.838589454","41.67520948","POINT (1.838589454 41.67520948)"
"081056","Llagosta, la","41","Vallès Oriental","432,709.9962","4,596,034.657","2.193612736","41.51312003","POINT (2.193612736 41.51312003)"
"430923","Mont-roig del Camp","08","Baix Camp","328,496.635","4,550,457.638","0.958121082","41.08730454","POINT (0.958121082 41.08730454)"
"431515","Torre de Fontaubella, la","29","Priorat","320,711.5095","4,554,767.443","0.864236158","41.1244212","POINT (0.864236158 41.1244212)"
"250925","Floresta, la","18","Garrigues","326,405.842","4,597,446.466","0.919841953","41.50984771","POINT (0.919841953 41.50984771)"
"252206","Térmens","23","Noguera","313,706.0001","4,620,846.598","0.760492054","41.71760607","POINT (0.760492054 41.71760607)"
"081607","Perafita","43","Lluçanès","426,092.4323","4,654,854.798","2.106999046","42.04226681","POINT (2.106999046 42.04226681)"
"170391","Camprodon","31","Ripollès","447,671.6911","4,684,560.681","2.365044902","42.31152555","POINT (2.365044902 42.31152555)"
"080116","Avià","14","Berguedà","402,819.428","4,659,024.982","1.82515717","42.07728596","POINT (1.82515717 42.07728596)"
"251790","Prullans","15","Cerdanya","395,956.6411","4,692,646.086","1.736184762","42.37913531","POINT (1.736184762 42.37913531)"
"080713","Copons","06","Anoia","376,584.9872","4,610,467.105","1.518223006","41.63639337","POINT (1.518223006 41.63639337)"
"250194","Almacelles","33","Segrià","286,818.2641","4,623,150.087","0.436732426","41.73158197","POINT (0.436732426 41.73158197)"
"080312","Calaf","06","Anoia","376,194.0404","4,621,321.435","1.511278933","41.73406648","POINT (1.511278933 41.73406648)"
"080594","Castellfollit del Boix","07","Bages","390,392.0642","4,613,663.006","1.683366337","41.66718916","POINT (1.683366337 41.66718916)"
"170366","Campdevànol","31","Ripollès","431,337.4655","4,674,916.596","2.168005107","42.22340907","POINT (2.168005107 42.22340907)"
"171674","Sant Joan de les Abadesses","31","Ripollès","440,987.615","4,675,872.718","2.284830772","42.23280805","POINT (2.284830772 42.23280805)"
"081593","Parets del Vallès","41","Vallès Oriental","436,104.0517","4,602,670.642","2.233577244","41.57316553","POINT (2.233577244 41.57316553)"
"082080","Sant Esteve Sesrovires","11","Baix Llobregat","406,040.9402","4,594,125.856","1.874365808","41.49324532","POINT (1.874365808 41.49324532)"
"430108","Alió","01","Alt Camp","358,200.0331","4,572,902.978","1.306398395","41.29512621","POINT (1.306398395 41.29512621)"
"171030","Maçanet de la Selva","34","Selva","477,671.2855","4,624,982.361","2.731325675","41.77637139","POINT (2.731325675 41.77637139)"
"082042","Sant Climent de Llobregat","11","Baix Llobregat","416,028.3133","4,576,661.964","1.996420408","41.3370707","POINT (1.996420408 41.3370707)"
"259010","Vall de Cardós","26","Pallars Sobirà","354,517.8014","4,713,879.117","1.227640857","42.56361512","POINT (1.227640857 42.56361512)"
"170834","Hostalric","34","Selva","470,179.2485","4,621,616.412","2.641346718","41.74580856","POINT (2.641346718 41.74580856)"
"170237","Blanes","34","Selva","482,653.4733","4,613,606.666","2.791605671","41.67403461","POINT (2.791605671 41.67403461)"
"171100","Mont-ras","10","Baix Empordà","512,002.449","4,639,541.123","3.144717363","41.9077239","POINT (3.144717363 41.9077239)"
"170372","Campelles","31","Ripollès","429,194.6493","4,682,864.818","2.141072148","42.29479352","POINT (2.141072148 42.29479352)"
"171851","Sant Joan les Fonts","19","Garrotxa","459,641.4638","4,673,502.708","2.511051067","42.21265049","POINT (2.511051067 42.21265049)"
"431671","Vilanova d'Escornalbou","08","Baix Camp","326,758.2959","4,553,349.269","0.936622714","41.11296714","POINT (0.936622714 41.11296714)"
"081271","Monistrol de Montserrat","07","Bages","403,576.0349","4,607,099.895","1.842759667","41.60979073","POINT (1.842759667 41.60979073)"
"082824","Tiana","21","Maresme","438,972.9791","4,592,493.604","2.269019357","41.48172848","POINT (2.269019357 41.48172848)"
"250595","Bossòst","39","Aran","311,191.5941","4,739,361.996","0.691705542","42.78354193","POINT (0.691705542 42.78354193)"
"431628","Vandellòs i l'Hospitalet de l'Infant","08","Baix Camp","317,677.03","4,543,233.879","0.831528354","41.01992442","POINT (0.831528354 41.01992442)"
"171334","Planes d'Hostoles, les","19","Garrotxa","461,681.4967","4,656,090.53","2.536909351","42.05593631","POINT (2.536909351 42.05593631)"
"083067","Vilalba Sasserra","41","Vallès Oriental","453,464.1447","4,611,385.523","2.44112064","41.65285857","POINT (2.44112064 41.65285857)"
"170950","Lloret de Mar","34","Selva","487,319.4493","4,616,325.965","2.847602852","41.69861565","POINT (2.847602852 41.69861565)"
"251569","Os de Balaguer","23","Noguera","310,659.9672","4,637,940.163","0.718450186","41.87072639","POINT (0.718450186 41.87072639)"
"251765","Preixana","38","Urgell","336,561.938","4,607,990.405","1.03860185","41.60690151","POINT (1.03860185 41.60690151)"
"171390","Preses, les","19","Garrotxa","455,444.5602","4,665,700.592","2.460804364","42.14215674","POINT (2.460804364 42.14215674)"
"430825","Masroig, el","29","Priorat","309,558.0071","4,555,299.154","0.731302487","41.12666805","POINT (0.731302487 41.12666805)"
"081810","Roca del Vallès, la","41","Vallès Oriental","443,802.0754","4,604,205.585","2.325763581","41.58756871","POINT (2.325763581 41.58756871)"
"431418","Pontils","16","Conca de Barberà","365,358.8688","4,593,024.164","1.387396068","41.47752473","POINT (1.387396068 41.47752473)"
"999999","Altres/Diversos","99","Altres/Diversos","0","0","0","0","POINT (0 0)"
"080484","Carme","06","Anoia","385,128.8219","4,598,609.762","1.62304521","41.53089786","POINT (1.62304521 41.53089786)"
"080425","Cànoves i Samalús","41","Vallès Oriental","446,156.1692","4,615,995.586","2.352943715","41.69391937","POINT (2.352943715 41.69391937)"
"259084","Fígols i Alinyà","04","Alt Urgell","362,977.9915","4,673,618.808","1.340241294","42.2027292","POINT (1.340241294 42.2027292)"
"080044","Alpens","43","Lluçanès","425,697.5767","4,663,408.728","2.101142098","42.11926142","POINT (2.101142098 42.11926142)"
"171582","Sant Climent Sescebes","02","Alt Empordà","498,356.8168","4,690,745.306","2.980043309","42.36898126","POINT (2.980043309 42.36898126)"
"259025","Sant Martí de Riucorb","38","Urgell","337,654.9883","4,602,766.6","1.053125669","41.56009925","POINT (1.053125669 41.56009925)"
"080193","Barcelona","13","Barcelonès","431,205.8838","4,581,535.646","2.177241106","41.38240539","POINT (2.177241106 41.38240539)"
"431460","Senan","16","Conca de Barberà","340,364.3683","4,592,689.927","1.088271595","41.46993046","POINT (1.088271595 41.46993046)"
"170101","Argelaguer","19","Garrotxa","470,425.6426","4,673,532.491","2.641698357","42.21340121","POINT (2.641698357 42.21340121)"
"179026","Forallac","10","Baix Empordà","504,565.4816","4,645,308.188","3.055092224","41.95974452","POINT (3.055092224 41.95974452)"
"080253","Bruc, el","06","Anoia","398,306.0031","4,603,945.93","1.780059385","41.58073445","POINT (1.780059385 41.58073445)"
"171539","Rupià","10","Baix Empordà","500,881.5267","4,652,045.226","3.0106476","42.02043561","POINT (3.0106476 42.02043561)"
"170806","Gombrèn","31","Ripollès","425,006.6038","4,677,695.905","2.090942855","42.24785517","POINT (2.090942855 42.24785517)"
"259062","Valls d'Aguilar, les","04","Alt Urgell","363,306.5543","4,683,746.32","1.341832868","42.29395966","POINT (1.341832868 42.29395966)"
"081398","Mura","07","Bages","414,812.127","4,616,923.825","1.976188317","41.69954107","POINT (1.976188317 41.69954107)"
"250045","Alamús, els","33","Segrià","311,583.6606","4,609,580.18","0.738550669","41.61570667","POINT (0.738550669 41.61570667)"
"430957","Morell, el","36","Tarragonès","349,786.1598","4,561,629.937","1.208726943","41.19210803","POINT (1.208726943 41.19210803)"
"430568","Fatarella, la","37","Terra Alta","288,000.9849","4,559,856.611","0.473149679","41.16234027","POINT (0.473149679 41.16234027)"
"251615","Conca de Dalt","25","Pallars Jussà","332,640.3824","4,678,947.232","0.971426812","42.24478465","POINT (0.971426812 42.24478465)"
"250169","Alguaire","33","Segrià","299,059.892","4,623,307.148","0.583741122","41.73618377","POINT (0.583741122 41.73618377)"
"430580","Figuera, la","29","Priorat","309,879.6494","4,565,273.233","0.732035727","41.21651919","POINT (0.732035727 41.21651919)"
"250387","Aitona","33","Segrià","287,893.5222","4,596,783.178","0.458983454","41.49461039","POINT (0.458983454 41.49461039)"
"439023","Sant Jaume d'Enveja","22","Montsià","307,136.6124","4,508,521.127","0.717018049","40.70504003","POINT (0.717018049 40.70504003)"
"082068","Sant Cugat Sesgarrigues","03","Alt Penedès","395,647.8151","4,579,762.913","1.75236167","41.36261514","POINT (1.75236167 41.36261514)"
"082541","Esquirol, l'","24","Osona","447,708.4588","4,653,911.696","2.368244029","42.03550806","POINT (2.368244029 42.03550806)"
"250138","Alfarràs","33","Segrià","298,183.1028","4,633,756.316","0.56965673","41.82999269","POINT (0.56965673 41.82999269)"
"430688","Godall","22","Montsià","285,991.1941","4,503,605.736","0.468609637","40.65558241","POINT (0.468609637 40.65558241)"
"170448","Cassà de la Selva","20","Gironès","489,570.3248","4,636,999.155","2.874290931","41.88485122","POINT (2.874290931 41.88485122)"
"080902","Gaià","07","Bages","410,890.3037","4,641,066.892","1.925435009","41.91652923","POINT (1.925435009 41.91652923)"
"171997","Torroella de Montgrí","10","Baix Empordà","510,459.5015","4,654,337.806","3.12637678","42.04101493","POINT (3.12637678 42.04101493)"
"430629","Freginals","22","Montsià","290,380.8416","4,505,293.146","0.519922755","40.67189591","POINT (0.519922755 40.67189591)"
"082802","Tavertet","24","Osona","451,835.9838","4,649,583.915","2.418462997","41.99679492","POINT (2.418462997 41.99679492)"
"080945","Granada, la","03","Alt Penedès","392,920.8233","4,581,386.936","1.719478586","41.37688207","POINT (1.719478586 41.37688207)"
"081672","Polinyà","40","Vallès Occidental","429,640.029","4,601,003.688","2.156245284","41.55760939","POINT (2.156245284 41.55760939)"
"252385","Vallbona de les Monges","38","Urgell","340,553.8745","4,598,808.361","1.088920757","41.52504899","POINT (1.088920757 41.52504899)"
"439057","Salou","36","Tarragonès","343,218.9305","4,549,446.877","1.133565772","41.08117674","POINT (1.133565772 41.08117674)"
"170160","Bàscara","02","Alt Empordà","492,579.631","4,667,496.314","2.91017634","42.15956157","POINT (2.91017634 42.15956157)"
"250753","Clariana de Cardener","35","Solsonès","385,988.1119","4,643,353.406","1.624774181","41.93391509","POINT (1.624774181 41.93391509)"
"080229","Berga","14","Berguedà","404,570.4126","4,661,941.373","1.845845087","42.1037619","POINT (1.845845087 42.1037619)"
"251654","Peramola","04","Alt Urgell","356,640.345","4,657,572.33","1.267448373","42.05713729","POINT (1.267448373 42.05713729)"
"170561","Cornellà del Terri","28","Pla de l'Estany","484,754.56","4,659,690.361","2.815658025","42.08914457","POINT (2.815658025 42.08914457)"
"171978","Torrent","10","Baix Empordà","510,572.4844","4,644,445.141","3.127563835","41.95191363","POINT (3.127563835 41.95191363)"
"431021","Paüls","09","Baix Ebre","281,082.7088","4,533,395.114","0.400164063","40.92237943","POINT (0.400164063 40.92237943)"
"080673","Centelles","24","Osona","435,123.0651","4,627,609.995","2.219100119","41.79769849","POINT (2.219100119 41.79769849)"
"430712","Horta de Sant Joan","37","Terra Alta","274,174.6701","4,537,099.031","0.31686019","40.95383083","POINT (0.31686019 40.95383083)"
"170182","Bellcaire d'Empordà","10","Baix Empordà","507,817.5887","4,658,775.184","3.094515204","42.08101115","POINT (3.094515204 42.08101115)"
"439018","Deltebre","09","Baix Ebre","307,665.1507","4,510,125.472","0.722777588","40.71960517","POINT (0.722777588 40.71960517)"
"081516","Oristà","43","Lluçanès","422,098.3335","4,642,693.81","2.060357752","41.93236576","POINT (2.060357752 41.93236576)"
"081751","Puig-reig","14","Berguedà","407,122.347","4,647,511.931","1.87898946","41.97413283","POINT (1.87898946 41.97413283)"
"081831","Roda de Ter","24","Osona","442,796.4052","4,647,875.661","2.309491592","41.98080557","POINT (2.309491592 41.98080557)"
"081402","Navarcles","07","Bages","408,859.1623","4,622,780.879","1.903759781","41.75162689","POINT (1.903759781 41.75162689)"
"081419","Navàs","07","Bages","407,043.2844","4,639,262.919","1.879336762","41.89984083","POINT (1.879336762 41.89984083)"
"171910","Serra de Daró","10","Baix Empordà","506,006.541","4,652,845.189","3.072558712","42.02761814","POINT (3.072558712 42.02761814)"
"430483","Corbera d'Ebre","37","Terra Alta","288,148.7528","4,550,450.351","0.47815365","41.07772916","POINT (0.47815365 41.07772916)"
"080575","Castell de l'Areny","14","Berguedà","412,880.5231","4,669,546.921","1.945196781","42.17321606","POINT (1.945196781 42.17321606)"
"251235","Lladorre","26","Pallars Sobirà","356,418.1055","4,720,282.844","1.249167838","42.62161411","POINT (1.249167838 42.62161411)"
"250582","Borges Blanques, les","18","Garrigues","322,205.8453","4,598,746.5","0.86916301","41.5206285","POINT (0.86916301 41.5206285)"
"430120","Altafulla","36","Tarragonès","363,786.0191","4,555,820.481","1.376896997","41.14227297","POINT (1.376896997 41.14227297)"
"171870","Saus, Camallera i Llampaies","02","Alt Empordà","497,002.0595","4,663,462.817","2.963730612","42.12326353","POINT (2.963730612 42.12326353)"
"080847","Fonollosa","07","Bages","389,335.1434","4,624,312.03","1.668695995","41.76293413","POINT (1.668695995 41.76293413)"
"170524","Siurana","02","Alt Empordà","499,545.6838","4,673,020.269","2.99449618","42.20934742","POINT (2.99449618 42.20934742)"
"082016","Sant Boi de Lluçanès","24","Osona","429,817.2558","4,656,649.527","2.15178496","42.05877073","POINT (2.15178496 42.05877073)"
"080057","Ametlla del Vallès, l'","41","Vallès Oriental","438,525.1365","4,613,333.639","2.261520529","41.66939188","POINT (2.261520529 41.66939188)"
"082779","Talamanca","07","Bages","414,942.1596","4,621,203.831","1.977139773","41.73809931","POINT (1.977139773 41.73809931)"
"250077","Albatàrrec","33","Segrià","300,355.8601","4,605,146.675","0.605376149","41.57307862","POINT (0.605376149 41.57307862)"
"170985","Maià de Montcal","19","Garrotxa","478,768.6626","4,674,469.429","2.742740958","42.22211068","POINT (2.742740958 42.22211068)"
"252252","Tornabous","38","Urgell","337,986.97","4,618,470.35","1.05285368","41.70153249","POINT (1.05285368 41.70153249)"
"252249","Torms, els","18","Garrigues","309,307.8639","4,585,054.449","0.719020561","41.39442803","POINT (0.719020561 41.39442803)"
"171498","Riudaura","19","Garrotxa","451,081.5611","4,670,870.633","2.407573106","42.18845748","POINT (2.407573106 42.18845748)"
"251364","Molsosa, la","35","Solsonès","378,760.4121","4,626,742.933","1.541023401","41.78327794","POINT (1.541023401 41.78327794)"
"170293","Boadella i les Escaules","02","Alt Empordà","488,263.7691","4,686,547.376","2.857547428","42.33108746","POINT (2.857547428 42.33108746)"
"081304","Montclar","14","Berguedà","397,754.4974","4,652,535.594","1.765071661","42.01820919","POINT (1.765071661 42.01820919)"
"252056","Sidamon","27","Pla d'Urgell","319,423.6703","4,610,812.285","0.832211886","41.6286088","POINT (0.832211886 41.6286088)"
"250707","Castellserà","38","Urgell","332,622.0503","4,623,627.459","0.986964286","41.74684408","POINT (0.986964286 41.74684408)"
"171693","Sant Julià de Ramis","20","Gironès","486,705.5168","4,653,636.337","2.839385619","42.03465426","POINT (2.839385619 42.03465426)"
"431303","Rocafort de Queralt","16","Conca de Barberà","356,472.0375","4,593,197.021","1.280961476","41.47753985","POINT (1.280961476 41.47753985)"
"431652","Vilabella","01","Alt Camp","360,065.2909","4,567,494.449","1.329909008","41.2467535","POINT (1.329909008 41.2467535)"
"082166","Sant Jaume de Frontanyà","14","Berguedà","419,528.714","4,670,933.753","2.025486574","42.18641639","POINT (2.025486574 42.18641639)"
"171169","Osor","34","Selva","463,215.1306","4,643,831.897","2.556211062","41.94560349","POINT (2.556211062 41.94560349)"
"430038","Albiol, l'","08","Baix Camp","339,944.7266","4,568,502.908","1.089629618","41.25209985","POINT (1.089629618 41.25209985)"
"170078","Amer","34","Selva","467,144.4655","4,650,866.481","2.603222047","42.00913383","POINT (2.603222047 42.00913383)"
"082107","Sant Feliu de Codines","41","Vallès Oriental","430,473.481","4,615,575.254","2.164546597","41.68891823","POINT (2.164546597 41.68891823)"
"080076","Arenys de Munt","21","Maresme","461,603.122","4,606,684.454","2.53916522","41.61094994","POINT (2.53916522 41.61094994)"
"081430","Òdena","06","Anoia","386,808.3065","4,607,005.824","1.641588518","41.60674209","POINT (1.641588518 41.60674209)"
"082652","Sant Vicenç de Torelló","24","Osona","439,934.4697","4,656,981.696","2.274015277","42.06260072","POINT (2.274015277 42.06260072)"
"431704","Vila-rodona","01","Alt Camp","362,580.6934","4,574,571.156","1.358321566","41.31090434","POINT (1.358321566 41.31090434)"
"431747","Vilella Baixa, la","29","Priorat","312,391.6352","4,565,656.954","0.761861618","41.22055919","POINT (0.761861618 41.22055919)"
"172272","Vilamaniscle","02","Alt Empordà","505,581.8022","4,691,470.252","3.067798773","42.37549187","POINT (3.067798773 42.37549187)"
"082439","Santa Cecília de Voltregà","24","Osona","435,585.3732","4,649,271.718","2.222301046","41.99282173","POINT (2.222301046 41.99282173)"
"081770","Quar, la","14","Berguedà","414,101.4472","4,659,278.896","1.96148824","42.08088762","POINT (1.96148824 42.08088762)"
"430461","Conesa","16","Conca de Barberà","357,424.8922","4,597,739.231","1.291294091","41.51860535","POINT (1.291294091 41.51860535)"
"431068","Pinell de Brai, el","37","Terra Alta","291,112.6845","4,543,706.696","0.51568904","41.01780503","POINT (0.51568904 41.01780503)"
"172116","Verges","10","Baix Empordà","503,861.5654","4,656,487.211","3.046671526","42.06043381","POINT (3.046671526 42.06043381)"
"430385","Cambrils","08","Baix Camp","336,829.3523","4,548,459.881","1.057802277","41.07103393","POINT (1.057802277 41.07103393)"
"170046","Albons","10","Baix Empordà","507,044.6072","4,661,354.194","3.085200894","42.10424634","POINT (3.085200894 42.10424634)"
"250371","Avellanes i Santa Linya, les","23","Noguera","314,573.3081","4,641,990.877","0.764299568","41.90810962","POINT (0.764299568 41.90810962)"
"171194","Palau de Santa Eulàlia","02","Alt Empordà","497,056.6499","4,669,045.282","2.964362863","42.17354183","POINT (2.964362863 42.17354183)"
"081379","Montseny","41","Vallès Oriental","449,736.2287","4,623,212.57","2.395354738","41.75915399","POINT (2.395354738 41.75915399)"
"172207","Viladrau","24","Osona","449,356.303","4,633,045.588","2.38994519","41.84769059","POINT (2.38994519 41.84769059)"
"251706","Bellaguarda","18","Garrigues","310,752.6664","4,578,611.74","0.738299645","41.33678081","POINT (0.738299645 41.33678081)"
"082845","Tordera","21","Maresme","476,599.1875","4,616,398.356","2.718763122","41.69902461","POINT (2.718763122 41.69902461)"
"172235","Vilajuïga","02","Alt Empordà","507,756.7964","4,686,138.244","3.094145391","42.3274526","POINT (3.094145391 42.3274526)"
"430509","Creixell","36","Tarragonès","369,185.2229","4,558,549.951","1.440627272","41.16773933","POINT (1.440627272 41.16773933)"
"171061","Mollet de Peralada","02","Alt Empordà","500,047.1156","4,689,591.141","3.000572131","42.35858847","POINT (3.000572131 42.35858847)"
"170932","Llers","02","Alt Empordà","492,713.7465","4,682,679.336","2.911609249","42.29630565","POINT (2.911609249 42.29630565)"
"250997","Golmés","27","Pla d'Urgell","327,839.5674","4,611,049.912","0.933110148","41.63260825","POINT (0.933110148 41.63260825)"
"431055","Piles, les","16","Conca de Barberà","361,657.498","4,596,016.23","1.342395363","41.50383442","POINT (1.342395363 41.50383442)"
"082362","Sant Quintí de Mediona","03","Alt Penedès","388,356.6364","4,590,946.797","1.663146513","41.46234959","POINT (1.663146513 41.46234959)"
"081923","Santpedor","07","Bages","403,537.1809","4,626,364.925","1.839177662","41.78327337","POINT (1.839177662 41.78327337)"
"080399","Campins","41","Vallès Oriental","455,411.2083","4,619,330.521","2.463909429","41.72452859","POINT (2.463909429 41.72452859)"
"080207","Begues","11","Baix Llobregat","410,015.8869","4,575,968.237","1.924677961","41.33017397","POINT (1.924677961 41.33017397)"
"431687","Vilanova de Prades","16","Conca de Barberà","329,033.4489","4,579,413.532","0.956407714","41.34808373","POINT (0.956407714 41.34808373)"
"081799","Rellinars","40","Vallès Occidental","409,282.0662","4,610,094.857","1.910774943","41.63743115","POINT (1.910774943 41.63743115)"
"431114","Pobla de Montornès, la","36","Tarragonès","367,014.6194","4,559,820.099","1.414486274","41.17882324","POINT (1.414486274 41.17882324)"
"252120","Sunyer","33","Segrià","299,130.8162","4,599,596.676","0.59254954","41.52282505","POINT (0.59254954 41.52282505)"
"080522","Castellar de n'Hug","14","Berguedà","418,968.6244","4,681,651.894","2.017208352","42.28287514","POINT (2.017208352 42.28287514)"
"250523","Bellvís","27","Pla d'Urgell","318,322.968","4,615,683.555","0.817527266","41.67220364","POINT (0.817527266 41.67220364)"
"082009","Sant Boi de Llobregat","11","Baix Llobregat","419,913.8378","4,577,778.726","2.042704219","41.34752428","POINT (2.042704219 41.34752428)"
"250791","Cubells","23","Noguera","330,421.1362","4,635,444.494","0.95713334","41.85274554","POINT (0.95713334 41.85274554)"
"082750","Tavèrnoles","24","Osona","444,181.3832","4,644,682.645","2.326511576","41.9521483","POINT (2.326511576 41.9521483)"
"172288","Vilanant","02","Alt Empordà","490,856.7089","4,678,095.343","2.889153626","42.25500164","POINT (2.889153626 42.25500164)"
"172142","Vilabertran","02","Alt Empordà","498,325.7811","4,681,260.82","2.979693865","42.28356246","POINT (2.979693865 42.28356246)"
"171616","Sant Feliu de Pallerols","19","Garrotxa","459,258.5093","4,658,269.552","2.50747617","42.0754392","POINT (2.50747617 42.0754392)"
"431508","Tivissa","30","Ribera d'Ebre","309,424.7499","4,545,963.54","0.732607845","41.04260664","POINT (0.732607845 41.04260664)"
"082732","Subirats","03","Alt Penedès","399,215.6562","4,581,910.929","1.794652615","41.38241395","POINT (1.794652615 41.38241395)"
"081939","Sant Iscle de Vallalta","21","Maresme","464,121.1364","4,608,105.437","2.569300136","41.62386593","POINT (2.569300136 41.62386593)"
"172180","Vilademuls","28","Pla de l'Estany","490,741.6107","4,665,161.324","2.887964208","42.1385121","POINT (2.887964208 42.1385121)"
"252022","Senterada","25","Pallars Jussà","329,976.656","4,687,887.337","0.936534555","42.3246735","POINT (0.936534555 42.3246735)"
"431042","Perelló, el","09","Baix Ebre","307,205.2807","4,527,396.503","0.712002694","40.87496069","POINT (0.712002694 40.87496069)"
"171349","Planoles","31","Ripollès","426,131.6634","4,685,289.845","2.103610131","42.31634679","POINT (2.103610131 42.31634679)"
"251484","Odèn","35","Solsonès","366,701.4237","4,665,871.266","1.387099236","42.13362308","POINT (1.387099236 42.13362308)"
"171058","Mieres","19","Garrotxa","470,234.567","4,663,624.477","2.639889942","42.12416017","POINT (2.639889942 42.12416017)"
"170314","Cabanelles","02","Alt Empordà","485,106.6792","4,675,370.383","2.819514826","42.23037144","POINT (2.819514826 42.23037144)"
"082495","Santa Fe del Penedès","03","Alt Penedès","393,082.6781","4,582,224.926","1.721265848","41.38445001","POINT (1.721265848 41.38445001)"
"430477","Constantí","36","Tarragonès","350,116.574","4,557,289.224","1.213727473","41.15308728","POINT (1.213727473 41.15308728)"
"081038","Jorba","06","Anoia","379,054.2526","4,606,583.527","1.548645289","41.6018025","POINT (1.548645289 41.6018025)"
"082248","Sant Martí de Centelles","24","Osona","437,738.2307","4,623,832.894","2.250971253","41.76389065","POINT (2.250971253 41.76389065)"
"081252","Montcada i Reixac","40","Vallès Occidental","432,193.9722","4,593,005.656","2.187770377","41.48579566","POINT (2.187770377 41.48579566)"
"251288","Llimiana","25","Pallars Jussà","327,624.0702","4,660,220.427","0.916202262","42.07514407","POINT (0.916202262 42.07514407)"
"170545","Colera","02","Alt Empordà","512,397.7005","4,694,631.168","3.150655224","42.40388031","POINT (3.150655224 42.40388031)"
"250518","Bellver de Cerdanya","15","Cerdanya","399,088.2385","4,691,666.714","1.774387211","42.37073001","POINT (1.774387211 42.37073001)"
"431093","Pobla de Mafumet, la","36","Tarragonès","349,822.6029","4,561,127.232","1.209284685","41.18758866","POINT (1.209284685 41.18758866)"
"082378","Sant Quirze de Besora","24","Osona","435,687.5941","4,661,203.555","2.22222543","42.10028539","POINT (2.22222543 42.10028539)"
"251410","Montoliu de Segarra","32","Segarra","355,803.9506","4,605,731.255","1.269958038","41.5902694","POINT (1.269958038 41.5902694)"
"081000","Gurb","24","Osona","437,271.3629","4,643,445.696","2.243276016","41.94048906","POINT (2.243276016 41.94048906)"
"080109","Artés","07","Bages","413,171.2076","4,627,891.855","1.95486944","41.79813699","POINT (1.95486944 41.79813699)"
"082900","Ullastrell","40","Vallès Occidental","412,974.4545","4,597,776.279","1.956888262","41.52690369","POINT (1.956888262 41.52690369)"
"252017","Sarroca de Bellera","25","Pallars Jussà","325,506.5575","4,691,896.619","0.881107541","42.35976804","POINT (0.881107541 42.35976804)"
"431188","Pratdip","08","Baix Camp","321,105.4484","4,546,621.427","0.871294807","41.05117875","POINT (0.871294807 41.05117875)"
"251636","Coma i la Pedra, la","35","Solsonès","383,531.4834","4,670,271.145","1.589798104","42.17591991","POINT (1.589798104 42.17591991)"
"250931","Fondarella","27","Pla d'Urgell","322,880.9426","4,611,396.514","0.873515184","41.63464248","POINT (0.873515184 41.63464248)"
"081786","Rajadell","07","Bages","392,396.1183","4,620,352.063","1.70622668","41.7276963","POINT (1.70622668 41.7276963)"
"171175","Palafrugell","10","Baix Empordà","513,605.6331","4,640,346.812","3.164065976","41.91495458","POINT (3.164065976 41.91495458)"
"430764","Marçà","29","Priorat","315,589.4511","4,555,157.873","0.803144969","41.12678858","POINT (0.803144969 41.12678858)"
"171411","Puigcerdà","15","Cerdanya","411,736.3821","4,698,370.194","1.926947695","42.43263033","POINT (1.926947695 42.43263033)"
"081653","Pobla de Claramunt, la","06","Anoia","389,528.9688","4,601,219.993","1.675296009","41.55502231","POINT (1.675296009 41.55502231)"
"430213","Barberà de la Conca","16","Conca de Barberà","351,852.206","4,585,879.601","1.227449026","41.41081942","POINT (1.227449026 41.41081942)"
"080919","Gelida","03","Alt Penedès","405,029.8948","4,588,329.855","1.863167973","41.44092894","POINT (1.863167973 41.44092894)"
"081764","Pujalt","06","Anoia","368,785.0756","4,619,595.179","1.422600785","41.71733521","POINT (1.422600785 41.71733521)"
"430424","Castellvell del Camp","08","Baix Camp","340,380.5838","4,560,546.303","1.096907219","41.18055339","POINT (1.096907219 41.18055339)"
"252509","Vilanova de Meià","23","Noguera","336,293.7146","4,651,175.135","1.023470182","41.99558008","POINT (1.023470182 41.99558008)"
"251497","Oliana","04","Alt Urgell","360,342.3577","4,658,500.303","1.31194814","42.06615809","POINT (1.31194814 42.06615809)"
"080569","Castelldefels","11","Baix Llobregat","414,264.7729","4,570,375.757","1.976232924","41.28026946","POINT (1.976232924 41.28026946)"
"250100","Alcanó","33","Segrià","301,053.3901","4,594,834.703","0.617145104","41.48044892","POINT (0.617145104 41.48044892)"
"250432","Vall de Boí, la","05","Alta Ribagorça","319,281.6712","4,708,146.692","0.800461177","42.50458673","POINT (0.800461177 42.50458673)"
"172018","Toses","31","Ripollès","418,998.3532","4,685,968.145","2.016964383","42.32174548","POINT (2.016964383 42.32174548)"
"083041","Vilobí del Penedès","03","Alt Penedès","388,272.8277","4,582,940.974","1.663622541","41.39024459","POINT (1.663622541 41.39024459)"
"430398","Capafonts","08","Baix Camp","334,830.6729","4,573,446.364","1.027284083","41.2955744","POINT (1.027284083 41.2955744)"
"431270","Riudecanyes","08","Baix Camp","328,845.621","4,555,194.367","0.96095419","41.1300198","POINT (0.96095419 41.1300198)"
"171208","Palau-saverdera","02","Alt Empordà","512,207.7862","4,683,913.19","3.14812057","42.30735638","POINT (3.14812057 42.30735638)"
"431140","Porrera","29","Priorat","320,205.5624","4,561,871.458","0.856129608","41.18825741","POINT (0.856129608 41.18825741)"
"080305","Cabrils","21","Maresme","447,249.0286","4,597,368.549","2.367716483","41.52622386","POINT (2.367716483 41.52622386)"
"171544","Sales de Llierca","19","Garrotxa","471,131.6627","4,676,046.49","2.650126842","42.23606905","POINT (2.650126842 42.23606905)"
"080734","Cornellà de Llobregat","11","Baix Llobregat","422,219.8476","4,578,602.71","2.070159567","41.35517145","POINT (2.070159567 41.35517145)"
"171925","Setcases","31","Ripollès","442,481.7366","4,691,645.731","2.30136792","42.37496369","POINT (2.30136792 42.37496369)"
"430379","Calafell","12","Baix Penedès","379,991.2156","4,562,052.886","1.568712715","41.20095546","POINT (1.568712715 41.20095546)"
"082536","Santa Maria de Besora","24","Osona","438,645.5229","4,664,223.718","2.257677408","42.12772104","POINT (2.257677408 42.12772104)"
"430234","Bellmunt del Priorat","29","Priorat","312,519.5723","4,559,368.739","0.765313302","41.1639882","POINT (0.765313302 41.1639882)"
"080543","Castellbisbal","40","Vallès Occidental","414,936.9376","4,591,975.786","1.981226635","41.47487524","POINT (1.981226635 41.47487524)"
"250501","Bellpuig","38","Urgell","334,402.3431","4,610,123.081","1.012110106","41.62565452","POINT (1.012110106 41.62565452)"
"431690","Vilaplana","08","Baix Camp","335,149.7691","4,566,006.932","1.03310439","41.22866612","POINT (1.03310439 41.22866612)"
"251180","Juncosa","18","Garrigues","313,960.7557","4,582,378.973","0.775456987","41.3714361","POINT (0.775456987 41.3714361)"
"080272","Cabanyes, les","03","Alt Penedès","390,414.8154","4,580,852.954","1.689614095","41.37173606","POINT (1.689614095 41.37173606)"
"170638","Espinelves","24","Osona","451,691.3243","4,635,380.574","2.417880772","41.86886642","POINT (2.417880772 41.86886642)"
"431541","Torroja del Priorat","29","Priorat","316,425.0597","4,564,776.063","0.810210307","41.21355499","POINT (0.810210307 41.21355499)"
"999998","No consta","98","No consta","0","0","0","0","POINT (0 0)"
"251945","Sant Ramon","32","Segarra","363,507.7187","4,620,501.87","1.358975924","41.72461029","POINT (1.358975924 41.72461029)"
"251229","Linyola","27","Pla d'Urgell","325,656.0099","4,619,746.506","0.904373528","41.71041342","POINT (0.904373528 41.71041342)"
"259031","Guingueta d'Àneu, la","26","Pallars Sobirà","346,741.1913","4,717,454.94","1.131988036","42.59429672","POINT (1.131988036 42.59429672)"
"252542","Vilanova de la Barca","33","Segrià","310,988.9933","4,617,968.394","0.728766743","41.6910611","POINT (0.728766743 41.6910611)"
"250411","Barbens","27","Pla d'Urgell","335,060.2261","4,616,058.335","1.018365545","41.67921889","POINT (1.018365545 41.67921889)"
"171668","Sant Jordi Desvalls","20","Gironès","496,156.5632","4,657,781.271","2.953539082","42.07208893","POINT (2.953539082 42.07208893)"
"170353","Camós","28","Pla de l'Estany","480,818.5576","4,660,219.391","2.768048383","42.09382295","POINT (2.768048383 42.09382295)"
"170558","Colomers","10","Baix Empordà","498,931.5462","4,659,145.252","2.987081633","42.08438237","POINT (2.987081633 42.08438237)"
"251930","Sant Llorenç de Morunys","35","Solsonès","383,552.495","4,665,975.411","1.590910882","42.13724558","POINT (1.590910882 42.13724558)"
"172174","Viladamat","02","Alt Empordà","506,100.6297","4,664,518.206","3.073817047","42.13275084","POINT (3.073817047 42.13275084)"
"430976","Nou de Gaià, la","36","Tarragonès","363,610.5046","4,560,328.305","1.373803061","41.18283352","POINT (1.373803061 41.18283352)"
"259059","Ribera d'Ondara","32","Segarra","361,880.9904","4,609,771.216","1.341908077","41.62771708","POINT (1.341908077 41.62771708)"
"251863","Riner","35","Solsonès","377,644.2545","4,641,351.145","1.524576147","41.91463777","POINT (1.524576147 41.91463777)"
"250621","Camarasa","23","Noguera","323,894.1722","4,638,103.757","0.877764265","41.87525565","POINT (0.877764265 41.87525565)"
"170268","Borrassà","02","Alt Empordà","493,906.6866","4,674,545.314","2.926166502","42.22305885","POINT (2.926166502 42.22305885)"
"170656","Esponellà","28","Pla de l'Estany","483,235.3136","4,669,488.322","2.797006406","42.17735796","POINT (2.797006406 42.17735796)"
"170617","Das","15","Cerdanya","406,956.6423","4,690,545.999","1.870114118","42.3616204","POINT (1.870114118 42.3616204)"
"252537","Vilosell, el","18","Garrigues","328,305.7381","4,583,342.429","0.94660253","41.38329641","POINT (0.94660253 41.38329641)"
"170963","Llosses, les","31","Ripollès","427,288.5674","4,666,910.84","2.119950002","42.15094845","POINT (2.119950002 42.15094845)"
"080620","Castellnou de Bages","07","Bages","403,425.2236","4,632,013.935","1.836910755","41.8341297","POINT (1.836910755 41.8341297)"
"170280","Brunyola i Sant Martí Sapresa","34","Selva","473,817.1362","4,639,242.65","2.684319914","41.9046929","POINT (2.684319914 41.9046929)"
"431362","Ràpita, la","22","Montsià","296,361.8519","4,499,391.02","0.592536631","40.62026987","POINT (0.592536631 40.62026987)"
"431665","Vilallonga del Camp","36","Tarragonès","349,594.6226","4,563,773.237","1.205916871","41.21136969","POINT (1.205916871 41.21136969)"
"170412","Cantallops","02","Alt Empordà","493,908.7327","4,696,710.56","2.925957603","42.42268242","POINT (2.925957603 42.42268242)"
"081846","Rubí","40","Vallès Occidental","419,143.9597","4,593,993.757","2.031335058","41.49348467","POINT (2.031335058 41.49348467)"
"172266","Vilamalla","02","Alt Empordà","497,583.2738","4,673,891.651","2.970718914","42.21719177","POINT (2.970718914 42.21719177)"
"170890","Llagostera","20","Gironès","491,016.6056","4,630,775.146","2.891817464","41.82881009","POINT (2.891817464 41.82881009)"
"081424","Nou de Berguedà, la","14","Berguedà","407,906.5095","4,668,795.958","1.885103187","42.16588441","POINT (1.885103187 42.16588441)"
"430897","Montferri","01","Alt Camp","363,105.6871","4,569,496.144","1.365731905","41.26529763","POINT (1.365731905 41.26529763)"
"082665","Cerdanyola del Vallès","40","Vallès Occidental","428,271.4845","4,593,624.005","2.140715332","41.49102342","POINT (2.140715332 41.49102342)"
"080121","Avinyó","07","Bages","414,578.2644","4,635,119.855","1.970760811","41.86338143","POINT (1.970760811 41.86338143)"
"430574","Febró, la","08","Baix Camp","332,828.6549","4,571,453.377","1.003933683","41.27722074","POINT (1.003933683 41.27722074)"
"431251","Riba-roja d'Ebre","30","Ribera d'Ebre","289,502.5728","4,569,656.725","0.487657559","41.25092506","POINT (0.487657559 41.25092506)"
"251522","Oluges, les","32","Segarra","360,208.0462","4,617,473.24","1.320031043","41.69676951","POINT (1.320031043 41.69676951)"
"170010","Agullana","02","Alt Empordà","487,356.821","4,693,545.394","2.846385617","42.39409786","POINT (2.846385617 42.39409786)"
"171984","Torroella de Fluvià","02","Alt Empordà","503,347.6609","4,669,237.234","3.040533504","42.175269","POINT (3.040533504 42.175269)"
"251804","Puiggròs","18","Garrigues","323,983.4786","4,602,156.92","0.889455565","41.55171932","POINT (0.889455565 41.55171932)"
"171267","Parlavà","10","Baix Empordà","502,630.6277","4,652,424.069","3.031775971","42.0238438","POINT (3.031775971 42.0238438)"
"080689","Cervelló","11","Baix Llobregat","412,971.8686","4,583,253.787","1.958951323","41.39611352","POINT (1.958951323 41.39611352)"
"251253","Llardecans","33","Segrià","295,154.6856","4,583,181.681","0.550502483","41.37409493","POINT (0.550502483 41.37409493)"
"430705","Guiamets, els","29","Priorat","311,305.4778","4,552,496.511","0.752965188","41.10184911","POINT (0.752965188 41.10184911)"
"081022","Igualada","06","Anoia","384,757.9817","4,603,926.033","1.617581375","41.57871621","POINT (1.617581375 41.57871621)"
"431634","Vendrell, el","12","Baix Penedès","377,208.2917","4,564,227.698","1.53509551","41.22012232","POINT (1.53509551 41.22012232)"
"082687","Cercs","14","Berguedà","405,962.4906","4,666,618.969","1.861924391","42.14605031","POINT (1.861924391 42.14605031)"
"431359","Salomó","36","Tarragonès","363,789.0024","4,565,453.384","1.374788777","41.22901123","POINT (1.374788777 41.22901123)"
"250637","Canejan","39","Aran","315,181.9469","4,745,346.78","0.738490358","42.83836792","POINT (0.738490358 42.83836792)"
"081290","Muntanyola","24","Osona","431,759.7679","4,636,603.31","2.177584873","41.87840992","POINT (2.177584873 41.87840992)"
"250899","Farrera","26","Pallars Sobirà","357,956.7246","4,707,296.396","1.271152918","42.50499961","POINT (1.271152918 42.50499961)"
"172168","Viladasens","20","Gironès","494,186.5794","4,660,363.29","2.92969952","42.09533185","POINT (2.92969952 42.09533185)"
"170499","Celrà","20","Gironès","489,601.773","4,652,732.276","2.874392042","42.02655538","POINT (2.874392042 42.02655538)"
"431750","Vilalba dels Arcs","37","Terra Alta","282,582.4557","4,555,435.733","0.410194282","41.12112328","POINT (0.410194282 41.12112328)"
"430311","Borges del Camp, les","08","Baix Camp","333,873.5831","4,559,744.803","1.019587184","41.17203008","POINT (1.019587184 41.17203008)"
"170464","Castellfollit de la Roca","19","Garrotxa","462,831.6051","4,674,245.55","2.549651308","42.21949879","POINT (2.549651308 42.21949879)"
"081901","Saldes","14","Berguedà","395,706.5456","4,676,011.062","1.736147373","42.22932023","POINT (1.736147373 42.22932023)"
"430141","Amposta","22","Montsià","295,671.307","4,509,762.73","0.581007048","40.71345238","POINT (0.581007048 40.71345238)"
"082704","Sitges","17","Garraf","400,428.7148","4,565,534.855","1.811838248","41.23508519","POINT (1.811838248 41.23508519)"
"430537","Duesaigües","08","Baix Camp","326,347.6251","4,557,034.367","0.930692032","41.14605326","POINT (0.930692032 41.14605326)"
"250978","Fulleda","18","Garrigues","335,005.8143","4,592,046.392","1.02431182","41.46305309","POINT (1.02431182 41.46305309)"
"082188","Sant Joan de Vilatorrada","07","Bages","400,626.1452","4,622,210.941","1.804848323","41.74550716","POINT (1.804848323 41.74550716)"
"252038","Seu d'Urgell, la","04","Alt Urgell","373,377.1766","4,690,681.507","1.462430747","42.35809762","POINT (1.462430747 42.35809762)"
"251771","Preixens","23","Noguera","338,056.0974","4,628,746.426","1.050887005","41.79405026","POINT (1.050887005 41.79405026)"
"171328","Peralada","02","Alt Empordà","500,658.5089","4,683,965.876","3.00798995","42.30792626","POINT (3.00798995 42.30792626)"
"171501","Riudellots de la Selva","34","Selva","483,677.3932","4,637,936.335","2.803237748","41.89319249","POINT (2.803237748 41.89319249)"
"251581","Palau d'Anglesola, el","27","Pla d'Urgell","323,536.193","4,613,269.485","0.880824357","41.65164643","POINT (0.880824357 41.65164643)"
"170904","Llambilles","20","Gironès","488,331.3922","4,641,020.305","2.859278593","41.92105157","POINT (2.859278593 41.92105157)"
"089019","Rupit i Pruit","24","Osona","455,680.3782","4,652,502.89","2.464658159","42.02330972","POINT (2.464658159 42.02330972)"
"170887","Lladó","02","Alt Empordà","484,606.6933","4,677,295.389","2.813404691","42.24769882","POINT (2.813404691 42.24769882)"
"171962","Terrades","02","Alt Empordà","486,731.7488","4,684,220.384","2.839005502","42.31010567","POINT (2.839005502 42.31010567)"
"171946","Susqueda","34","Selva","462,481.4627","4,651,445.517","2.546874149","42.01414038","POINT (2.546874149 42.01414038)"
"082606","Santa Perpètua de Mogoda","40","Vallès Occidental","431,884.0134","4,598,424.667","2.183444726","41.53457583","POINT (2.183444726 41.53457583)"
"170911","Llanars","31","Ripollès","445,956.6966","4,685,620.695","2.344137229","42.32095448","POINT (2.344137229 42.32095448)"
"430884","Montbrió del Camp","08","Baix Camp","332,417.8476","4,554,074.242","1.003792637","41.12068106","POINT (1.003792637 41.12068106)"
"081568","Palau-solità i Plegamans","40","Vallès Occidental","431,520.8829","4,604,309.194","2.178421008","41.58754343","POINT (2.178421008 41.58754343)"
"170157","Banyoles","28","Pla de l'Estany","480,473.8957","4,662,727.006","2.763796776","42.11639909","POINT (2.763796776 42.11639909)"
"431649","Vespella de Gaià","36","Tarragonès","362,716.6276","4,561,756.135","1.362829038","41.19553911","POINT (1.362829038 41.19553911)"
"430995","Palma d'Ebre, la","30","Ribera d'Ebre","304,530.6208","4,572,746.593","0.665882597","41.28250815","POINT (0.665882597 41.28250815)"
"430290","Blancafort","16","Conca de Barberà","346,213.8088","4,589,009.303","1.159223964","41.43793699","POINT (1.159223964 41.43793699)"
"430094","Alforja","08","Baix Camp","330,255.5948","4,564,096.385","0.975275129","41.21045485","POINT (0.975275129 41.21045485)"
"170708","Fontanilles","10","Baix Empordà","508,976.5306","4,650,885.163","3.108405998","42.00993664","POINT (3.108405998 42.00993664)"
"081385","Moià","42","Moianès","424,990.2373","4,629,393.767","2.096923027","41.81286912","POINT (2.096923027 41.81286912)"
"081705","Prats de Rei, els","06","Anoia","378,702.0799","4,618,110.101","1.542081512","41.70553776","POINT (1.542081512 41.70553776)"
"081192","Masquefa","06","Anoia","400,835.9402","4,595,155.897","1.81185265","41.50189427","POINT (1.81185265 41.50189427)"
"080240","Borredà","14","Berguedà","416,861.0816","4,665,325.653","1.993986452","42.13563637","POINT (1.993986452 42.13563637)"
"250864","Esterri d'Àneu","26","Pallars Sobirà","346,106.8121","4,721,246.508","1.123235174","42.62829782","POINT (1.123235174 42.62829782)"
"089045","Badia del Vallès","40","Vallès Occidental","426,053.9829","4,595,645.707","2.113905197","41.50903011","POINT (2.113905197 41.50903011)"
"171387","Portbou","02","Alt Empordà","513,365.1799","4,697,131.311","3.16246997","42.42638049","POINT (3.16246997 42.42638049)"
"250557","Biosca","35","Solsonès","363,681.1732","4,633,496.239","1.358077757","41.84163239","POINT (1.358077757 41.84163239)"
"250404","Balaguer","23","Noguera","317,578.8285","4,628,758.98","0.804588928","41.78971866","POINT (0.804588928 41.78971866)"
"250220","Alòs de Balaguer","23","Noguera","330,861.1877","4,642,082.501","0.960531325","41.91258932","POINT (0.960531325 41.91258932)"
"251832","Rialp","26","Pallars Sobirà","346,702.6575","4,700,756.472","1.135992931","42.4439851","POINT (1.135992931 42.4439851)"
"080386","Callús","07","Bages","398,938.0598","4,626,202.778","1.783871713","41.78124073","POINT (1.783871713 41.78124073)"
"431457","Selva del Camp, la","08","Baix Camp","343,815.9227","4,564,315.141","1.136882482","41.21515423","POINT (1.136882482 41.21515423)"
"430939","Móra d'Ebre","30","Ribera d'Ebre","301,940.7545","4,551,776.771","0.641767088","41.09314292","POINT (0.641767088 41.09314292)"
"430332","Botarell","08","Baix Camp","331,190.6416","4,555,825.009","0.988701528","41.13618814","POINT (0.988701528 41.13618814)"
"082093","Sant Fost de Campsentelles","41","Vallès Oriental","435,997.0059","4,596,630.633","2.232936617","41.51875719","POINT (2.232936617 41.51875719)"
"251272","Lles de Cerdanya","15","Cerdanya","391,931.6761","4,693,946.181","1.687061793","42.39029165","POINT (1.687061793 42.39029165)"
"082634","Sant Vicenç dels Horts","11","Baix Llobregat","417,211.8726","4,582,895.754","2.009712625","41.39333667","POINT (2.009712625 41.39333667)"
"080291","Cabrera de Mar","21","Maresme","449,384.0318","4,597,329.532","2.393308926","41.52601029","POINT (2.393308926 41.52601029)"
"439044","Aldea, l'","09","Baix Ebre","299,087.7533","4,513,273.673","0.620293809","40.74589422","POINT (0.620293809 40.74589422)"
"431135","Pont d'Armentera, el","01","Alt Camp","363,119.9417","4,582,651.209","1.362939374","41.38374894","POINT (1.362939374 41.38374894)"
"430653","Garcia","30","Ribera d'Ebre","302,654.0533","4,556,594.338","0.648705737","41.13667673","POINT (0.648705737 41.13667673)"
"081094","Lluçà","43","Lluçanès","423,331.4501","4,657,750.824","2.073264042","42.06808229","POINT (2.073264042 42.06808229)"
"431592","Vallfogona de Riucorb","16","Conca de Barberà","352,930.9237","4,602,771.273","1.236228855","41.56309674","POINT (1.236228855 41.56309674)"
"082055","Sant Cugat del Vallès","40","Vallès Occidental","423,377.946","4,591,323.72","2.082391608","41.46985344","POINT (2.082391608 41.46985344)"
"251327","Massoteres","32","Segarra","359,656.1301","4,628,646.262","1.310765521","41.79726476","POINT (1.310765521 41.79726476)"
"431248","Riba, la","01","Alt Camp","347,484.5505","4,575,698.026","1.177776121","41.31833693","POINT (1.177776121 41.31833693)"
"083020","Vilanova del Camí","06","Anoia","386,131.9784","4,603,187.021","1.634199238","41.57225855","POINT (1.634199238 41.57225855)"
"082690","Seva","24","Osona","440,245.2819","4,632,110.656","2.280295766","41.83863507","POINT (2.280295766 41.83863507)"
"081141","Martorell","11","Baix Llobregat","410,719.9312","4,591,966.818","1.930730461","41.4743361","POINT (1.930730461 41.4743361)"
"250680","Castellnou de Seana","27","Pla d'Urgell","331,056.6781","4,612,707.849","0.971241769","41.64822014","POINT (0.971241769 41.64822014)"
"080958","Granera","42","Moianès","421,582.1586","4,619,719.778","2.057173474","41.72541716","POINT (2.057173474 41.72541716)"
"171637","Sant Gregori","20","Gironès","480,087.1516","4,648,730.041","2.759594318","41.99032564","POINT (2.759594318 41.99032564)"
"251207","Lleida","33","Segrià","302,272.9144","4,609,721.951","0.626842574","41.61473059","POINT (0.626842574 41.61473059)"
"083073","Vilanova i la Geltrú","17","Garraf","393,232.3263","4,564,418.219","1.726180234","41.22411114","POINT (1.726180234 41.22411114)"
"082747","Súria","07","Bages","396,500.3883","4,631,815.336","1.753565253","41.83146668","POINT (1.753565253 41.83146668)"
"081884","Sagàs","14","Berguedà","414,070.4218","4,655,941.891","1.961603058","42.05083423","POINT (1.961603058 42.05083423)"
"082346","Sant Pere de Vilamajor","41","Vallès Oriental","449,285.1658","4,614,984.561","2.390629567","41.68501897","POINT (2.390629567 41.68501897)"
"171447","Regencós","10","Baix Empordà","514,245.2169","4,644,556.08","3.171880236","41.95285504","POINT (3.171880236 41.95285504)"
"430516","Cunit","12","Baix Penedès","385,530.6623","4,561,645.961","1.634836815","41.19809301","POINT (1.634836815 41.19809301)"
"081311","Montesquiu","24","Osona","434,675.5021","4,662,279.745","2.209866277","42.10989357","POINT (2.209866277 42.10989357)"
"080811","Fogars de Montclús","41","Vallès Oriental","453,688.2081","4,619,686.534","2.443167054","41.72763658","POINT (2.443167054 41.72763658)"
"080155","Badalona","13","Barcelonès","437,170.1396","4,588,989.202","2.247791638","41.45002603","POINT (2.247791638 41.45002603)"
"171680","Sant Joan de Mollet","20","Gironès","495,267.5393","4,654,864.274","2.942815805","42.04581194","POINT (2.942815805 42.04581194)"
"081897","Sant Pere Sallavinera","06","Anoia","381,287.1096","4,621,508.087","1.572465286","41.73652419","POINT (1.572465286 41.73652419)"
"080478","Cardona","07","Bages","390,558.2718","4,640,971.046","1.680327797","41.91311035","POINT (1.680327797 41.91311035)"
"170979","Madremanya","20","Gironès","496,481.4945","4,648,695.255","2.957521494","41.9902562","POINT (2.957521494 41.9902562)"
"081635","Pineda de Mar","21","Maresme","474,138.1547","4,608,468.362","2.689529503","41.62752246","POINT (2.689529503 41.62752246)"
"082943","Vallgorguina","41","Vallès Oriental","459,322.7846","4,610,728.332","2.511522938","41.64725988","POINT (2.511522938 41.64725988)"
"080538","Castellbell i el Vilar","07","Bages","405,081.1537","4,609,256.497","1.860478136","41.62939237","POINT (1.860478136 41.62939237)"
"080667","Castellví de Rosanes","11","Baix Llobregat","408,078.9068","4,589,303.834","1.89951114","41.45005532","POINT (1.89951114 41.45005532)"
"081332","Montmaneu","06","Anoia","367,918.2323","4,609,482.007","1.414420497","41.62613551","POINT (1.414420497 41.62613551)"
"252081","Soriguera","26","Pallars Sobirà","348,634.6055","4,693,563.446","1.161365174","42.37961756","POINT (1.161365174 42.37961756)"
"430069","Aldover","09","Baix Ebre","289,355.2609","4,528,421.64","0.500003865","40.87979172","POINT (0.500003865 40.87979172)"
"252304","Torregrossa","27","Pla d'Urgell","319,262.7891","4,605,428.644","0.831905372","41.58011517","POINT (0.831905372 41.58011517)"
"431080","Pla de Santa Maria, el","01","Alt Camp","356,882.545","4,580,728.947","1.288826246","41.36535634","POINT (1.288826246 41.36535634)"
"171766","Sant Mori","02","Alt Empordà","499,295.85","4,666,755.211","2.991477146","42.15292172","POINT (2.991477146 42.15292172)"
"252069","Soleràs, el","18","Garrigues","306,240.1152","4,587,320.928","0.68162869","41.41409377","POINT (0.68162869 41.41409377)"
"430960","Morera de Montsant, la","29","Priorat","319,230.626","4,570,446.478","0.841974773","41.26522842","POINT (0.841974773 41.26522842)"
"170274","Breda","34","Selva","463,331.2087","4,621,945.465","2.558967397","41.74848568","POINT (2.558967397 41.74848568)"
"431495","Tivenys","09","Baix Ebre","290,480.286","4,531,471.636","0.512315345","40.90752993","POINT (0.512315345 40.90752993)"
"430733","Llorac","16","Conca de Barberà","358,830.895","4,601,921.227","1.307155552","41.55650686","POINT (1.307155552 41.55650686)"
"430607","Flix","30","Ribera d'Ebre","294,660.3758","4,567,326.658","0.549946451","41.23128181","POINT (0.549946451 41.23128181)"
"430326","Bot","37","Terra Alta","280,080.3577","4,543,046.733","0.384843145","41.00896452","POINT (0.384843145 41.00896452)"
"250576","Bòrdes, Es","39","Aran","313,306.9945","4,734,247.617","0.719236909","42.73803938","POINT (0.719236909 42.73803938)"
"172137","Vidreres","34","Selva","481,747.5444","4,626,447.399","2.780328583","41.78967114","POINT (2.780328583 41.78967114)"
"431346","Rourell, el","01","Alt Camp","350,619.4659","4,565,252.106","1.217774332","41.2248745","POINT (1.217774332 41.2248745)"
"431227","Renau","36","Tarragonès","358,454.6466","4,565,147.173","1.31123847","41.22533836","POINT (1.31123847 41.22533836)"
"430831","Milà, el","01","Alt Camp","349,755.1511","4,567,863.657","1.206824514","41.24822743","POINT (1.206824514 41.24822743)"
"080142","Aiguafreda","24","Osona ","437,612.1891","4,624,388.539","2.249396729","41.76888504","POINT (2.249396729 41.76888504)"
"250334","Artesa de Lleida","33","Segrià","308,465.3458","4,602,555.57","0.703394598","41.55174258","POINT (0.703394598 41.55174258)"
"431129","Poboleda","29","Priorat","319,417.5992","4,566,828.472","0.845276091","41.23270288","POINT (0.845276091 41.23270288)"
"080706","Collsuspina","42","Moianès","431,515.258","4,630,763.72","2.175314238","41.82579764","POINT (2.175314238 41.82579764)"
"080431","Canyelles","17","Garraf","393,012.6049","4,571,266.612","1.722358067","41.28575598","POINT (1.722358067 41.28575598)"
"250241","Alt Àneu","26","Pallars Sobirà","344,918.7715","4,721,903.568","1.108575263","42.63397364","POINT (1.108575263 42.63397364)"
"081213","Mataró","21","Maresme","453,697.8499","4,598,832.642","2.444896864","41.5398099","POINT (2.444896864 41.5398099)"
"430206","Banyeres del Penedès","12","Baix Penedès","381,146.9226","4,570,741.333","1.580800344","41.27936622","POINT (1.580800344 41.27936622)"
"080961","Granollers","41","Vallès Oriental","440,575.0878","4,606,509.613","2.286822072","41.60808662","POINT (2.286822072 41.60808662)"
"081265","Montgat","21","Maresme","439,765.9677","4,590,845.595","2.278681615","41.4669452","POINT (2.278681615 41.4669452)"
"252167","Talavera","32","Segarra","361,491.9515","4,604,683.211","1.338415635","41.58183982","POINT (1.338415635 41.58183982)"
"081249","Mollet del Vallès","41","Vallès Oriental","434,126.017","4,598,496.65","2.210310853","41.53541184","POINT (2.210310853 41.53541184)"
"171117","Navata","02","Alt Empordà","488,490.6788","4,674,628.356","2.860538506","42.22374573","POINT (2.860538506 42.22374573)"
"082671","Sentmenat","40","Vallès Occidental","428,025.2728","4,606,754.459","2.136193226","41.60925884","POINT (2.136193226 41.60925884)"
"082270","Sant Martí Sarroca","03","Alt Penedès","383,859.8176","4,582,463.007","1.610944411","41.38531544","POINT (1.610944411 41.38531544)"
"430635","Galera, la","22","Montsià","285,661.9432","4,506,501.223","0.463731007","40.68155614","POINT (0.463731007 40.68155614)"
"170926","Llançà","02","Alt Empordà","512,414.8327","4,689,982.198","3.150763207","42.36201125","POINT (3.150763207 42.36201125)"
"082981","Vic","24","Osona","438,172.0719","4,642,269.531","2.254264193","41.92996761","POINT (2.254264193 41.92996761)"
"082423","Marganell","07","Bages","399,481.0549","4,610,542.932","1.793045527","41.64029098","POINT (1.793045527 41.64029098)"
"082191","Vilassar de Mar","21","Maresme","449,297.0116","4,594,707.529","2.392486809","41.50238859","POINT (2.392486809 41.50238859)"
"170340","Calonge i Sant Antoni","10","Baix Empordà","506,294.4011","4,634,354.158","3.075838423","41.86107184","POINT (3.075838423 41.86107184)"
"170123","Avinyonet de Puigventós","02","Alt Empordà","493,008.7075","4,677,467.326","2.915250376","42.2493678","POINT (2.915250376 42.2493678)"
"251142","Ivorra","32","Segarra","366,656.1182","4,625,646.204","1.395661121","41.77146172","POINT (1.395661121 41.77146172)"
"080728","Corbera de Llobregat","11","Baix Llobregat","410,386.8819","4,585,504.81","1.927701004","41.41610239","POINT (1.927701004 41.41610239)"
"081136","Manresa","07","Bages","402,428.1287","4,619,692.923","1.826928753","41.72305529","POINT (1.826928753 41.72305529)"
"081691","Prat de Llobregat, el","11","Baix Llobregat","424,105.8298","4,575,869.691","2.093044846","41.33073627","POINT (2.093044846 41.33073627)"
"172076","Vall d'en Bas, la","19","Garrotxa","455,291.5394","4,662,985.765","2.459160667","42.11769812","POINT (2.459160667 42.11769812)"
"080174","Balenyà","24","Osona","436,477.1764","4,629,560.22","2.235188771","41.81537217","POINT (2.235188771 41.81537217)"
"430727","Lloar, el","29","Priorat","311,378.2911","4,561,830.113","0.750961695","41.1858784","POINT (0.750961695 41.1858784)"
"082476","Santa Eulàlia de Riuprimer","24","Osona","432,708.3315","4,640,200.788","2.188605638","41.91088985","POINT (2.188605638 41.91088985)"
"251057","Granyena de les Garrigues","18","Garrigues","303,658.1697","4,589,442.614","0.650071322","41.43256244","POINT (0.650071322 41.43256244)"
"081995","Sant Bartomeu del Grau","24","Osona","431,832.3885","4,647,914.744","2.177151812","41.98028526","POINT (2.177151812 41.98028526)"
"250061","Albagés, l'","18","Garrigues","311,155.7699","4,591,046.571","0.739237187","41.44879641","POINT (0.739237187 41.44879641)"
"082310","Sant Pere de Ribes","17","Garraf","397,142.3954","4,568,602.82","1.772114573","41.26230332","POINT (1.772114573 41.26230332)"
"171753","Sant Miquel de Fluvià","02","Alt Empordà","499,329.6522","4,668,891.264","2.991883821","42.17215993","POINT (2.991883821 42.17215993)"
"171236","Palol de Revardit","28","Pla de l'Estany","483,107.5405","4,657,496.37","2.795806377","42.06935071","POINT (2.795806377 42.06935071)"
"081228","Mediona","03","Alt Penedès","384,055.8948","4,592,618.021","1.611341144","41.47678877","POINT (1.611341144 41.47678877)"
"081108","Malgrat de Mar","21","Maresme","478,410.1764","4,610,450.333","2.740742879","41.64550143","POINT (2.740742879 41.64550143)"
"081477","Olesa de Montserrat","11","Baix Llobregat","407,742.9852","4,599,684.852","1.893900541","41.54350594","POINT (1.893900541 41.54350594)"
"172060","Urús","15","Cerdanya","405,456.6305","4,689,346.009","1.852098708","42.35063439","POINT (1.852098708 42.35063439)"
"252154","Talarn","25","Pallars Jussà","326,581.4122","4,672,546.581","0.899943075","42.18585502","POINT (0.899943075 42.18585502)"
"082567","Santa Maria de Martorelles","41","Vallès Oriental","437,701.0091","4,596,706.62","2.253349207","41.51957597","POINT (2.253349207 41.51957597)"
"080654","Castellví de la Marca","03","Alt Penedès","384,363.1486","4,575,915.993","1.61821029","41.32643174","POINT (1.61821029 41.32643174)"
"251517","Olius","35","Solsonès","380,443.3115","4,648,268.135","1.556913968","41.97734627","POINT (1.556913968 41.97734627)"
"080403","Canet de Mar","21","Maresme","465,195.4783","4,604,171.983","2.582425003","41.58848471","POINT (2.582425003 41.58848471)"
"252287","Torrefarrera","33","Segrià","300,805.9449","4,616,246.689","0.607077676","41.67308438","POINT (0.607077676 41.67308438)"
"430402","Capçanes","29","Priorat","313,680.4796","4,552,246.492","0.78130284","41.10014659","POINT (0.78130284 41.10014659)"
"430555","Falset","29","Priorat","317,068.2924","4,557,275.509","0.820118665","41.14618499","POINT (0.820118665 41.14618499)"
"171886","Selva de Mar, la","02","Alt Empordà","515,406.8057","4,685,820.231","3.186985848","42.32447472","POINT (3.186985848 42.32447472)"
"170195","Besalú","19","Garrotxa","475,176.6376","4,671,902.452","2.699326775","42.19888607","POINT (2.699326775 42.19888607)"
"171805","Santa Coloma de Farners","34","Selva","472,011.349","4,634,453.418","2.662775243","41.86149583","POINT (2.662775243 41.86149583)"
"250390","Baix Pallars","26","Pallars Sobirà","340,506.5476","4,687,521.499","1.064357054","42.32360869","POINT (1.064357054 42.32360869)"
"081976","Sant Andreu de Llavaneres","21","Maresme","456,928.0839","4,602,659.483","2.483347205","41.57445867","POINT (2.483347205 41.57445867)"
"082917","Vacarisses","40","Vallès Occidental","409,905.0411","4,606,589.847","1.918781001","41.60593686","POINT (1.918781001 41.60593686)"
"431286","Riudecols","08","Baix Camp","330,230.1906","4,559,476.773","0.9762538","41.16886235","POINT (0.9762538 41.16886235)"
"170242","Bolvir","15","Cerdanya","407,842.7222","4,696,849.002","1.879863587","42.41848025","POINT (1.879863587 42.41848025)"
"080930","Gisclareny","14","Berguedà","399,891.5693","4,678,251.034","1.786464763","42.25003708","POINT (1.786464763 42.25003708)"
"251826","Puigverd de Lleida","33","Segrià","310,955.8496","4,601,596.589","0.733536105","41.54370384","POINT (0.733536105 41.54370384)"
"081918","Sallent","07","Bages","408,207.2222","4,630,832.897","1.894674687","41.82406284","POINT (1.894674687 41.82406284)"
"430189","Arnes","37","Terra Alta","269,280.2601","4,532,396.798","0.260519691","40.91015257","POINT (0.260519691 40.91015257)"
"431763","Vimbodí i Poblet","16","Conca de Barberà","337,086.8416","4,585,031.29","1.051107112","41.400326","POINT (1.051107112 41.400326)"
"082861","Torre de Claramunt, la","06","Anoia","388,067.0658","4,598,860.897","1.658209642","41.5335756","POINT (1.658209642 41.5335756)"
"081878","Sabadell","40","Vallès Occidental","425,650.0138","4,599,796.716","2.108551925","41.54637803","POINT (2.108551925 41.54637803)"
"082798","Terrassa","40","Vallès Occidental","417,476.0153","4,601,726.781","2.010294804","41.56295878","POINT (2.010294804 41.56295878)"
"250729","Cervera","32","Segarra","356,080.4117","4,614,115.996","1.27125747","41.66580832","POINT (1.27125747 41.66580832)"
"252458","Vilaller","05","Alta Ribagorça","312,356.6378","4,705,196.802","0.717205843","42.47639332","POINT (0.717205843 42.47639332)"
"082444","Santa Coloma de Cervelló","11","Baix Llobregat","417,721.8526","4,580,184.746","2.016180072","41.36897282","POINT (2.016180072 41.36897282)"
"431107","Pobla de Massaluca, la","37","Terra Alta","278,055.4998","4,562,246.778","0.353860191","41.1811873","POINT (0.353860191 41.1811873)"
"430056","Alcover","01","Alt Camp","346,720.5084","4,569,526.847","1.170205538","41.26263186","POINT (1.170205538 41.26263186)"
"082359","Sant Pol de Mar","21","Maresme","468,429.752","4,605,460.243","2.621160222","41.60022259","POINT (2.621160222 41.60022259)"
"251137","Ivars d'Urgell","27","Pla d'Urgell","332,434.9953","4,616,423.449","0.98674138","41.68195747","POINT (0.98674138 41.68195747)"
"252516","Vilanova de Segrià","33","Segrià","301,897.7607","4,620,599.498","0.618737616","41.71252913","POINT (0.618737616 41.71252913)"
"250208","Almatret","33","Segrià","284,313.6132","4,575,880.752","0.42358212","41.30556557","POINT (0.42358212 41.30556557)"
"251924","Sant Guim de Freixenet","32","Segarra","368,349.0233","4,612,766.171","1.418867212","41.65577667","POINT (1.418867212 41.65577667)"
"172095","Vall-llobrega","10","Baix Empordà","510,533.4242","4,636,520.129","3.126951014","41.88053534","POINT (3.126951014 41.88053534)"
"251266","Llavorsí","26","Pallars Sobirà","352,821.7111","4,706,565.435","1.208870332","42.49746019","POINT (1.208870332 42.49746019)"
"082628","Sant Vicenç de Castellet","07","Bages","405,395.4519","4,613,267.702","1.863615971","41.6655524","POINT (1.863615971 41.6655524)"
"080288","Cabrera d'Anoia","06","Anoia","391,755.9067","4,592,595.962","1.703544417","41.47766643","POINT (1.703544417 41.47766643)"
"430458","Colldejou","08","Baix Camp","322,666.7691","4,552,013.341","0.888307781","41.10005832","POINT (0.888307781 41.10005832)"
"080060","Arenys de Mar","21","Maresme","462,623.081","4,603,191.138","2.551624094","41.57953396","POINT (2.551624094 41.57953396)"
"171404","Port de la Selva, el","02","Alt Empordà","516,849.2729","4,687,391.751","3.204538207","42.33859809","POINT (3.204538207 42.33859809)"
"081075","Lliçà d'Amunt","41","Vallès Oriental","436,626.8023","4,606,585.544","2.239433257","41.60846679","POINT (2.239433257 41.60846679)"
"082460","Santa Eugènia de Berga","24","Osona","440,539.3342","4,638,961.664","2.283148117","41.90035853","POINT (2.283148117 41.90035853)"
"172155","Vilablareix","20","Gironès","482,930.442","4,644,553.351","2.794042045","41.95277439","POINT (2.794042045 41.95277439)"
"080517","Castellar del Vallès","40","Vallès Occidental","423,990.1566","4,607,828.419","2.087635113","41.61855701","POINT (2.087635113 41.61855701)"
"082251","Sant Martí d'Albars","43","Lluçanès","423,356.4162","4,653,295.817","2.074148562","42.02796555","POINT (2.074148562 42.02796555)"
"250058","Alàs i Cerc","04","Alt Urgell","377,131.6224","4,689,896.224","1.508172662","42.35162992","POINT (1.508172662 42.35162992)"
"250772","Coll de Nargó","04","Alt Urgell","360,883.3869","4,670,415.268","1.315645723","42.17351957","POINT (1.315645723 42.17351957)"
"431589","Vallclara","16","Conca de Barberà","331,255.7367","4,582,596.406","0.982069891","41.37720472","POINT (0.982069891 41.37720472)"
"082418","Sant Sadurní d'Osormort","24","Osona","448,689.316","4,639,064.603","2.381388572","41.90185693","POINT (2.381388572 41.90185693)"
"081629","Hostalets de Pierola, els","06","Anoia","397,455.962","4,598,745.929","1.770752125","41.53379831","POINT (1.770752125 41.53379831)"
"431233","Reus","08","Baix Camp","341,290.6532","4,557,689.967","1.108491969","41.15501639","POINT (1.108491969 41.15501639)"
"082969","Vallromanes","41","Vallès Oriental","441,467.1895","4,598,037.046","2.298353915","41.53184295","POINT (2.298353915 41.53184295)"
"250313","Arres","39","Aran","312,695.873","4,736,146.785","0.711147895","42.75497977","POINT (0.711147895 42.75497977)"
"170813","Gualta","10","Baix Empordà","508,581.5145","4,652,945.17","3.103665683","42.02849475","POINT (3.103665683 42.02849475)"
"172214","Vilafant","02","Alt Empordà","494,868.2787","4,677,162.117","2.937795096","42.24663345","POINT (2.937795096 42.24663345)"
"430265","Benissanet","30","Ribera d'Ebre","301,274.6626","4,547,742.734","0.635144854","41.05667231","POINT (0.635144854 41.05667231)"
"080850","Font-rubí","03","Alt Penedès","387,260.8464","4,585,587.986","1.651028415","41.41394001","POINT (1.651028415 41.41394001)"
"430173","Argentera, l'","08","Baix Camp","324,530.5255","4,556,096.416","0.909320776","41.1372189","POINT (0.909320776 41.1372189)"
"171903","Serinyà","28","Pla de l'Estany","478,982.5201","4,668,644.579","2.745542768","42.16965629","POINT (2.745542768 42.16965629)"
"251462","Navès","35","Solsonès","387,084.477","4,649,816.68","1.636754845","41.99226914","POINT (1.636754845 41.99226914)"
"080266","Brull, el","24","Osona","442,317.3569","4,629,662.628","2.305489017","41.81674111","POINT (2.305489017 41.81674111)"
"252189","Tarrés","18","Garrigues","334,555.7801","4,587,596.389","1.020144555","41.42290082","POINT (1.020144555 41.42290082)"
"259046","Castell de Mur","25","Pallars Jussà","324,379.4359","4,662,135.123","0.87642989","42.09165825","POINT (0.87642989 42.09165825)"
"250812","Espluga Calba, l'","18","Garrigues","333,455.839","4,595,621.409","1.004775522","41.49491526","POINT (1.004775522 41.49491526)"
"430640","Gandesa","37","Terra Alta","284,784.6512","4,547,698.676","0.439107295","41.05208342","POINT (0.439107295 41.05208342)"
"252402","Vallfogona de Balaguer","23","Noguera","318,449.8425","4,624,546.899","0.816350796","41.75200775","POINT (0.816350796 41.75200775)"
"252173","Tàrrega","38","Urgell","345,027.1185","4,612,177.501","1.139054429","41.64628389","POINT (1.139054429 41.64628389)"
"172001","Tortellà","19","Garrotxa","469,442.6574","4,675,692.502","2.629675788","42.23281673","POINT (2.629675788 42.23281673)"
"430350","Cabacés","29","Priorat","310,105.5989","4,568,696.545","0.733664655","41.24738484","POINT (0.733664655 41.24738484)"
"251538","Omellons, els","18","Garrigues","329,726.6661","4,596,398.221","0.95990685","41.5011244","POINT (0.95990685 41.5011244)"
"259078","Torrefeta i Florejacs","32","Segarra","356,578.3476","4,623,949.901","1.274869878","41.75443314","POINT (1.274869878 41.75443314)"
"081688","Pontons","03","Alt Penedès","376,030.8318","4,585,971.071","1.516619317","41.41573587","POINT (1.516619317 41.41573587)"
"252332","Torre-serona","33","Segrià","302,800.1839","4,616,178.606","0.631037175","41.67296782","POINT (0.631037175 41.67296782)"
"431378","Sant Jaume dels Domenys","12","Baix Penedès","379,380.7389","4,573,021.026","1.559265423","41.29963282","POINT (1.559265423 41.29963282)"
"250426","Baronia de Rialb, la","23","Noguera","350,451.2313","4,643,819.355","1.19618638","41.93217702","POINT (1.19618638 41.93217702)"
"431439","Savallà del Comtat","16","Conca de Barberà","358,173.5859","4,600,448.16","1.299624351","41.54312796","POINT (1.299624351 41.54312796)"
"250030","Agramunt","38","Urgell","342,006.097","4,627,871.394","1.098635444","41.78696984","POINT (1.098635444 41.78696984)"
"431212","Rasquera","30","Ribera d'Ebre","297,911.1401","4,541,689.821","0.597134391","41.00136649","POINT (0.597134391 41.00136649)"
"171735","Sant Martí Vell","20","Gironès","494,312.5162","4,651,978.276","2.931303885","42.01981256","POINT (2.931303885 42.01981256)"
"251977","Sant Guim de la Plana","32","Segarra","360,731.1031","4,624,821.248","1.324595827","41.76301707","POINT (1.324595827 41.76301707)"
"082325","Sant Pere de Riudebitlles","03","Alt Penedès","391,529.9744","4,589,881.813","1.701326925","41.45319447","POINT (1.701326925 41.45319447)"
"251039","Granyanella","32","Segarra","352,490.0102","4,614,259.294","1.228114284","41.66644177","POINT (1.228114284 41.66644177)"
"082649","Sant Vicenç de Montalt","21","Maresme","459,050.0908","4,603,153.468","2.508766296","41.57901954","POINT (2.508766296 41.57901954)"
"082299","Sant Mateu de Bages","07","Bages","394,705.1795","4,627,986.995","1.732630684","41.79675681","POINT (1.732630684 41.79675681)"
"250236","Alpicat","33","Segrià","296,455.9333","4,615,621.721","0.55507915","41.66636078","POINT (0.55507915 41.66636078)"
"080235","Bigues i Riells del Fai","41","Vallès Oriental","434,102.5437","4,614,475.505","2.208271917","41.67932227","POINT (2.208271917 41.67932227)"
"081461","Olesa de Bonesvalls","03","Alt Penedès","403,861.8179","4,578,437.849","1.850758765","41.35170451","POINT (1.850758765 41.35170451)"
"430363","Cabra del Camp","01","Alt Camp","355,930.7865","4,584,071.221","1.276657071","41.39527897","POINT (1.276657071 41.39527897)"
"170754","Garrigàs","02","Alt Empordà","496,213.6653","4,671,261.292","2.954141859","42.19349642","POINT (2.954141859 42.19349642)"
"081580","Papiol, el","11","Baix Llobregat","417,372.9103","4,587,855.761","2.010961168","41.43802425","POINT (2.010961168 41.43802425)"
"080977","Gualba","41","Vallès Oriental","458,577.5692","4,620,146.188","2.501920371","41.7320464","POINT (2.501920371 41.7320464)"
"081982","Sant Antoni de Vilamajor","41","Vallès Oriental","450,111.1572","4,613,707.552","2.400660571","41.67356956","POINT (2.400660571 41.67356956)"
"250215","Almenar","33","Segrià","297,893.284","4,630,216.604","0.567375973","41.79806557","POINT (0.567375973 41.79806557)"
"251333","Maials","33","Segrià","291,252.6693","4,582,269.296","0.504199067","41.36488195","POINT (0.504199067 41.36488195)"
"430075","Aleixar, l'","08","Baix Camp","336,175.0031","4,562,981.828","1.046140895","41.20164042","POINT (1.046140895 41.20164042)"
"251399","Montellà i Martinet","15","Cerdanya","392,554.4104","4,690,585.606","1.695252157","42.36012031","POINT (1.695252157 42.36012031)"
"082233","Sant Llorenç Savall","40","Vallès Occidental","421,738.7071","4,614,606.511","2.059726584","41.67938291","POINT (2.059726584 41.67938291)"
"082726","Sora","24","Osona","430,536.4961","4,662,385.776","2.159795294","42.11049281","POINT (2.159795294 42.11049281)"
